,hash_id,Vlak,Vecerka,Obchod,Bus,Skola,Skolka,Lekar,Hospoda,Restaurace,Metro,Tram,date_update,building_type,building_condition,building_location,area_net,price_note,energy_efficient_rating,building_floor_type,building_floor,garage,swimming_pool,area_landplot,cellar,house_location,price,lat,lon,locality,region,lat_cen,lon_cen,city_dist
1,3981059148,3213.0,719.0,1989.0,60.0,714.0,411.0,2121.0,1667.0,305.0,2071.0,1424.0,Dnes,Smíšená,Novostavba,,161.0,včetně DPH,B,Patrový,,,,318.0,,Řadový,14595304,50.147034,14.473924,"U spojů, Praha 8 - Ďáblice",10,50.0875,14.4213889,7.606151604712511
2,2171561036,1441.0,989.0,2088.0,90.0,756.0,1041.0,1208.0,2146.0,127.0,1209.0,1154.0,Dnes,Smíšená,Projekt,,226.0,"včetně DPH, včetně provize, včetně právního servisu",B,Patrový,,,,856.0,,Samostatný,54980000,50.107578,14.352712,"V Trníčku, Praha 6 - Dejvice",10,50.0875,14.4213889,5.383456143053492
4,1286899020,464.0,104.0,2550.0,54.0,279.0,476.0,3115.0,293.0,145.0,2580.0,2770.0,Dnes,Cihlová,Novostavba,,208.0,vč. právního servisu,B,Patrový,3,1,,354.0,,,23400000,50.138809,14.546665,Praha 9 - Kbely,10,50.0875,14.4213889,10.599461372810216
5,1704076364,2161.0,263.0,1956.0,158.0,293.0,314.0,490.0,520.0,163.0,355.0,146.0,Dnes,Cihlová,Po rekonstrukci,Klidná část obce,203.0,Cena je včetně provize RK a kompletního právního servisu.,G,Patrový,5 včetně 1 podzemního,,,128.0,,Řadový,16990000,50.127625,14.454474,"Přemyšlenská, Praha 8 - Kobylisy",10,50.0875,14.4213889,5.047153103254849
6,212989260,1155.0,1340.0,1159.0,156.0,1475.0,882.0,2028.0,1692.0,373.0,4386.0,3146.0,Dnes,Cihlová,Velmi dobrý,,109.0,včetně provize,,Patrový,,,,500.0,,,12950000,50.050537,14.581465,"K Průmstavu, Praha 10 - Dubeč",10,50.0875,14.4213889,12.141769667072495
8,3075208524,4813.0,565.0,924.0,551.0,759.0,317.0,2069.0,563.0,575.0,4129.0,1928.0,Dnes,Cihlová,Velmi dobrý,Klidná část obce,177.0,uvedená cena je vč. garážového stání a provize RK,B,Patrový,2,1,,289.0,,Řadový,18500000,49.995075,14.47234,"Ke kašně, Praha 4 - Písnice",10,50.0875,14.4213889,10.902291436049323
9,2122360140,1539.0,270.0,0.0,319.0,774.0,411.0,1871.0,301.0,489.0,0.0,0.0,Dnes,Cihlová,Novostavba,,157.0,,B,Patrový,,,,439.0,,Samostatný,15450000,50.07568,14.659288,Praha 9 - Újezd nad Lesy,10,50.0875,14.4213889,17.02569700956544
10,2273699148,1415.0,560.0,4693.0,318.0,870.0,319.0,767.0,434.0,310.0,0.0,3988.0,Dnes,Cihlová,Velmi dobrý,,232.0,,G,Patrový,,1,,932.0,,Samostatný,19500000,49.975197,14.393192,Praha 5 - Zbraslav,10,50.0875,14.4213889,12.648899040856321
11,377333068,1019.0,564.0,1416.0,503.0,784.0,638.0,1573.0,602.0,390.0,2974.0,1127.0,Dnes,Cihlová,Novostavba,,207.0,,G,Patrový,,1,,361.0,,Řadový,43000000,50.052277,14.55332,"U Golfu, Praha 10 - Dolní Měcholupy",10,50.0875,14.4213889,10.198106124909813
12,3337598284,451.0,562.0,1509.0,250.0,745.0,490.0,987.0,1248.0,876.0,560.0,1219.0,Dnes,Smíšená,Ve výstavbě,,194.0,"Cena včetně DPH, parkovacího stání a sklepu., včetně DPH, včetně provize, včetně právního servisu",B,Patrový,,,,205.0,,Řadový,26095000,50.06168,14.368812,"Na pomezí, Praha 5",10,50.0875,14.4213889,4.7245202015253485
14,233366860,1892.0,897.0,2425.0,180.0,357.0,769.0,1878.0,1760.0,411.0,1794.0,1816.0,Dnes,Smíšená,Velmi dobrý,Klidná část obce,275.0,,G,Patrový,2,1,,653.0,,Řadový,29900000,50.112293,14.338381,"Malý dvůr, Praha 6 - Nebušice",10,50.0875,14.4213889,6.53101089269647
15,2545542476,1376.0,378.0,1606.0,114.0,154.0,235.0,860.0,882.0,120.0,1124.0,273.0,Dnes,Cihlová,Dobrý,Klidná část obce,88.0,Cena vč.provize RK,G,Přízemní,,,,125.0,,V bloku,9450000,50.101997,14.418766,"Havanská, Praha 7 - Bubeneč",10,50.0875,14.4213889,1.622814795098043
16,102446412,539.0,144.0,1107.0,197.0,214.0,25.0,2710.0,1856.0,242.0,1820.0,786.0,Dnes,Cihlová,Velmi dobrý,Klidná část obce,175.0,,B,Patrový,3 včetně 1 podzemního,1,,440.0,,Řadový,25000000,50.08173,14.317346,"Jinočanská, Praha 6 - Ruzyně",10,50.0875,14.4213889,7.451015185457477
17,2819306828,2002.0,1266.0,2277.0,348.0,258.0,1172.0,1954.0,2149.0,809.0,1889.0,1909.0,Dnes,Cihlová,Dobrý,,206.0,,G,Patrový,,1,,770.0,1,,30900000,50.111301,14.331513,Praha 6 - Nebušice,10,50.0875,14.4213889,6.935383773769887
18,3206200156,737.0,951.0,710.0,281.0,806.0,623.0,1077.0,1191.0,902.0,1859.0,495.0,Dnes,Cihlová,Velmi dobrý,Klidná část obce,192.0,cena vč. právních služeb a provize RK,G,Patrový,3,1,,492.0,1,Rohový,17200000,50.060886,14.464054,"Tachlovická, Praha 10 - Vršovice",10,50.0875,14.4213889,4.245975996546775
20,264496460,754.0,482.0,2208.0,271.0,336.0,869.0,2714.0,661.0,482.0,2419.0,2411.0,Dnes,Cihlová,Před rekonstrukcí,Centrum obce,190.0,"Včetně provize RK, právního a hypotečního servisu",G,Patrový,2,2,,1135.0,15,Samostatný,17000000,50.128235,14.553464,"Valdická, Praha 9 - Kbely",10,50.0875,14.4213889,10.451363221785456
22,3648808012,1104.0,319.0,687.0,134.0,238.0,960.0,989.0,1038.0,558.0,1925.0,702.0,Dnes,Cihlová,Dobrý,Klidná část obce,210.0,k jednání,D,Patrový,2 včetně 1 podzemního,,1.0,292.0,1,V bloku,18000000,50.093563,14.509426,"Hrdlořezská, Praha 9 - Hrdlořezy",10,50.0875,14.4213889,6.316650257517501
23,2158265676,792.0,530.0,871.0,191.0,299.0,306.0,181.0,815.0,347.0,715.0,548.0,Dnes,Cihlová,Ve výstavbě,,108.0,"včetně právního servisu, včetně DPH, včetně provize",B,Patrový,,,,294.0,,Samostatný,8379000,50.102654,14.552089,Praha 9 - Praha 14,10,50.0875,14.4213889,9.474315361272767
30,2301174860,433.0,80.0,1343.0,95.0,536.0,308.0,1198.0,279.0,194.0,1426.0,1431.0,Dnes,Cihlová,Novostavba,,190.0,,B,Patrový,,1,,398.0,1,,20000000,50.093666,14.542703,Praha 9 - Kyje,10,50.0875,14.4213889,8.681658425996062
31,417895500,916.0,339.0,718.0,683.0,448.0,402.0,1080.0,1770.0,345.0,518.0,404.0,Dnes,Cihlová,Novostavba,,107.0,,B,Patrový,,,,191.0,,,14495000,50.106956,14.510207,Praha 9,10,50.0875,14.4213889,6.694597897025266
33,1012438092,916.0,339.0,718.0,683.0,448.0,402.0,1080.0,1770.0,345.0,518.0,404.0,Dnes,Cihlová,Novostavba,,107.0,,B,Patrový,,,,745.0,,,17350000,50.106956,14.510207,Praha 9,10,50.0875,14.4213889,6.694597897025266
35,2243925068,916.0,339.0,718.0,683.0,448.0,402.0,1080.0,1770.0,345.0,518.0,404.0,Dnes,Cihlová,Novostavba,,152.0,,B,Patrový,,1,,387.0,,,18295000,50.106956,14.510207,Praha 9,10,50.0875,14.4213889,6.694597897025266
36,2410517580,916.0,339.0,718.0,683.0,448.0,402.0,1080.0,1770.0,345.0,518.0,404.0,Dnes,Cihlová,Novostavba,,152.0,,B,Patrový,,1,,232.0,,,16495000,50.106956,14.510207,Praha 9,10,50.0875,14.4213889,6.694597897025266
37,2418615372,433.0,80.0,1343.0,95.0,536.0,308.0,1198.0,279.0,194.0,1426.0,1431.0,Dnes,Cihlová,Novostavba,,137.0,,B,Patrový,,1,,376.0,1,,19000000,50.093666,14.542703,Praha 9 - Kyje,10,50.0875,14.4213889,8.681658425996062
38,2451674188,916.0,339.0,718.0,683.0,448.0,402.0,1080.0,1770.0,345.0,518.0,404.0,Dnes,Cihlová,Novostavba,,152.0,,B,Patrový,,1,,262.0,,,17740000,50.106956,14.510207,Praha 9,10,50.0875,14.4213889,6.694597897025266
39,3619988556,916.0,339.0,718.0,683.0,448.0,402.0,1080.0,1770.0,345.0,518.0,404.0,Dnes,Cihlová,Novostavba,,107.0,,B,Patrový,2,,,248.0,,,14830000,50.106956,14.510207,Praha 9,10,50.0875,14.4213889,6.694597897025266
44,883680588,2165.0,1367.0,0.0,299.0,1441.0,1535.0,1902.0,2254.0,790.0,0.0,0.0,Dnes,Cihlová,Velmi dobrý,Klidná část obce,700.0,"včetně poplatků, včetně provize, včetně právního servisu",D,Patrový,,2,1.0,894.0,,Samostatný,32800000,50.1064,14.65893,"Úprkova, Praha 9 - Klánovice",10,50.0875,14.4213889,17.07374866210451
45,2961405004,1627.0,289.0,2484.0,38.0,337.0,331.0,3065.0,1242.0,318.0,3386.0,704.0,Dnes,Cihlová,Velmi dobrý,Klidná část obce,330.0,"včetně poplatků, včetně provize, včetně právního servisu",E,Patrový,3,1,1.0,1034.0,,Samostatný,29800000,50.020241,14.36013,"Granátová, Praha 5 - Slivenec",10,50.0875,14.4213889,8.663792993570773
46,4113364300,2885.0,172.0,1949.0,110.0,1587.0,474.0,3715.0,3029.0,184.0,3971.0,3277.0,Dnes,Cihlová,Velmi dobrý,,242.0,včetně právního servisu a provize RK,B,Patrový,2,2,,676.0,,Samostatný,24800000,50.162075,14.484477,"Vlaštovčí, Praha 8 - Březiněves",10,50.0875,14.4213889,9.433486028737077
47,295576652,1190.0,620.0,2830.0,106.0,488.0,506.0,1129.0,612.0,710.0,3411.0,0.0,Dnes,Cihlová,Dobrý,Klidná část obce,196.0,včetně provize RK a právního servisu,G,Patrový,2,1,,548.0,,Samostatný,9999000,50.11504,14.621432,Praha 9 - Horní Počernice,10,50.0875,14.4213889,14.592810811449816
48,2715358284,758.0,291.0,433.0,148.0,384.0,781.0,2415.0,881.0,307.0,938.0,2884.0,Dnes,Cihlová,Novostavba,,209.0,,A,Patrový,2,1,,393.0,,,22580000,50.037739,14.316081,"Jáchymovská, Praha - Řeporyje",10,50.0875,14.4213889,9.333911871198389
49,150390092,1441.0,989.0,2088.0,90.0,756.0,1041.0,1208.0,2146.0,127.0,1209.0,1154.0,Dnes,Smíšená,Projekt,,175.0,"včetně DPH, včetně provize, včetně právního servisu",B,Patrový,,,,386.0,,V bloku,34649000,50.107578,14.352712,"V Trníčku, Praha 6 - Dejvice",10,50.0875,14.4213889,5.383456143053492
51,3944535372,2239.0,335.0,588.0,186.0,296.0,231.0,941.0,119.0,255.0,311.0,246.0,Dnes,Cihlová,Velmi dobrý,,100.0,cena je vč. odměny RK,G,Patrový,2,,,132.0,1,Řadový,15390000,50.125793,14.474331,"Pod vlastním krovem, Praha 8 - Libeň",10,50.0875,14.4213889,5.690849623949883
54,787444812,1816.0,413.0,1761.0,383.0,374.0,180.0,716.0,186.0,331.0,556.0,67.0,Dnes,Cihlová,Velmi dobrý,Klidná část obce,200.0,,C,Patrový,3,,,143.0,,Řadový,18990000,50.120346,14.460177,"Pod hliništěm, Praha 8 - Kobylisy",10,50.0875,14.4213889,4.5817209441853315
55,1672168524,700.0,132.0,2596.0,158.0,385.0,289.0,2955.0,138.0,132.0,0.0,5087.0,Dnes,Cihlová,Velmi dobrý,Centrum obce,133.0,vč provize a právních služeb,C,Patrový,2,1,,476.0,,Samostatný,13900000,50.029697,14.598683,"Semanského, Praha 10 - Uhříněves",10,50.0875,14.4213889,14.195094580680793
56,940021068,120.0,131.0,1080.0,123.0,186.0,454.0,865.0,267.0,137.0,188.0,897.0,Dnes,Cihlová,Velmi dobrý,Klidná část obce,365.0,vč provize a právních služeb,B,Přízemní,1,,,623.0,,Samostatný,59950000,50.10862,14.560276,"Rotenská, Praha 9 - Kyje",10,50.0875,14.4213889,10.181204752398557
58,4110341452,1531.0,1076.0,1408.0,78.0,761.0,1115.0,1282.0,2227.0,84.0,1253.0,1210.0,Dnes,Smíšená,Před rekonstrukcí,,330.0,,G,Přízemní,,1,,1030.0,,Samostatný,25900000,50.104439,14.376745,Praha 6 - Dejvice,10,50.0875,14.4213889,3.699859301862762
61,3979715916,4540.0,356.0,1123.0,222.0,379.0,119.0,90.0,335.0,281.0,1321.0,4032.0,Včera,Cihlová,Velmi dobrý,Klidná část obce,1098.0,včetně provize RK a právního servisu,G,Patrový,3 včetně 1 podzemního,,1.0,1627.0,,Samostatný,43000000,50.0158,14.511171,"K Hrnčířům, Praha 4 - Šeberov",10,50.0875,14.4213889,10.230097158856932
62,2388866124,924.0,262.0,1547.0,368.0,803.0,290.0,1956.0,1315.0,272.0,2504.0,2082.0,Včera,Cihlová,Velmi dobrý,Klidná část obce,488.0,včetně všech poplatků RK,G,Patrový,2,1,,673.0,,Samostatný,21990000,50.084198,14.557976,"Kamencová, Praha 9 - Hostavice",10,50.0875,14.4213889,9.751994402149915
63,4032546124,1675.0,528.0,1559.0,343.0,487.0,56.0,528.0,780.0,120.0,1107.0,76.0,Včera,Smíšená,Před rekonstrukcí,Centrum obce,174.0,"vč. realitního, právního a hypotéčního servisu",G,Patrový,4,,,256.0,,Řadový,23500000,50.082619,14.35957,"8. listopadu, Praha - Břevnov",10,50.0875,14.4213889,4.443933653688405
64,2272122188,929.0,369.0,784.0,72.0,477.0,311.0,2439.0,1621.0,324.0,1742.0,880.0,Včera,Smíšená,Před rekonstrukcí,,132.0,,G,Patrový,,,,320.0,,Řadový,16790000,50.115204,14.382952,"Vidlicová, Praha 6 - Dejvice",10,50.0875,14.4213889,4.123762147933144
65,3513840972,3170.0,2220.0,4088.0,225.0,1353.0,1353.0,5077.0,3053.0,391.0,0.0,0.0,Včera,Cihlová,Velmi dobrý,Centrum obce,150.0,,C,Patrový,2,,,349.0,,Řadový,14500000,50.053062,14.624174,"Do Podkovy, Praha 10 - Hájek u Uhříněvsi",10,50.0875,14.4213889,14.97083262520412
66,1886074188,1778.0,329.0,5771.0,440.0,606.0,598.0,2138.0,1026.0,337.0,0.0,0.0,Včera,Cihlová,Velmi dobrý,,149.0,,D,Patrový,2,1,,410.0,,Samostatný,13990000,50.07465,14.64798,"Dražická, Praha 9 - Újezd nad Lesy",10,50.0875,14.4213889,16.23121584401212
67,1928709452,3165.0,603.0,2275.0,121.0,2014.0,106.0,4147.0,2830.0,130.0,4402.0,3699.0,Včera,Cihlová,Dobrý,Klidná část obce,243.0,Včetně kompletních realitních a právních služeb,G,Patrový,2,,,430.0,,Rohový,13500000,50.162945,14.483497,"Na hlavní, Praha 8 - Březiněves",10,50.0875,14.4213889,9.485806381415403
69,1433429068,1432.0,316.0,1205.0,74.0,723.0,210.0,1605.0,1403.0,182.0,1046.0,605.0,Včera,Smíšená,Před rekonstrukcí,Klidná část obce,96.0,,G,Patrový,3 včetně 1 podzemního,1,,296.0,3,Samostatný,12900000,50.08754,14.32988,"V domcích, Praha 6 - Liboc",10,50.0875,14.4213889,6.528660009549648
70,2357368396,2136.0,1145.0,1029.0,129.0,1174.0,1174.0,2478.0,374.0,1461.0,0.0,0.0,Včera,Cihlová,Novostavba,Klidná část obce,110.0,"neplatíte provizi, nabídka developera",B,Patrový,,,,610.0,,Samostatný,14854999,50.015694,14.656592,"Výtoňská, Praha 10 - Nedvězí u Říčan",10,50.0875,14.4213889,18.594541748198914
71,2839073868,4251.0,834.0,1583.0,394.0,903.0,540.0,1126.0,518.0,294.0,1930.0,3024.0,Včera,Smíšená,Velmi dobrý,Klidná část obce,350.0,,G,Patrový,2,1,,6776.0,,Samostatný,35000000,50.011265,14.49791,"Nad Šeberákem, Praha - Kunratice",10,50.0875,14.4213889,10.085169326801626
73,3564090700,1277.0,433.0,966.0,272.0,694.0,54.0,1444.0,834.0,308.0,797.0,456.0,Včera,Cihlová,Dobrý,,245.0,,G,Patrový,,1,,378.0,,,18990000,50.091362,14.321708,Praha 6 - Liboc,10,50.0875,14.4213889,7.124356550782255
74,250533196,2744.0,1416.0,0.0,295.0,686.0,686.0,3213.0,1923.0,296.0,0.0,0.0,Včera,Smíšená,Novostavba,,140.0,,B,Přízemní,,,,360.0,,Řadový,15963000,50.062057,14.638175,Praha 9 - Koloděje,10,50.0875,14.4213889,15.727162846553453
76,262788428,1108.0,292.0,824.0,214.0,404.0,351.0,1988.0,508.0,292.0,1651.0,2424.0,Včera,Cihlová,Před rekonstrukcí,Klidná část obce,200.0,Cena včetně provize realitní kanceláře a právních služeb.,G,Patrový,2 včetně 1 podzemního,1,,614.0,1,V bloku,14999000,50.140278,14.511674,"Velešínská, Praha 9 - Letňany",10,50.0875,14.4213889,8.711273698475564
80,2421200460,3494.0,790.0,2581.0,397.0,2124.0,249.0,4278.0,2668.0,416.0,4480.0,3769.0,Včera,Cihlová,Ve výstavbě,Okraj obce,141.0,,B,Patrový,2,,,366.0,,V bloku,13871200,50.166767,14.477639,"Na poli, Praha 8 - Březiněves",10,50.0875,14.4213889,9.683325013495844
81,2433619020,2692.0,489.0,2448.0,213.0,861.0,740.0,2762.0,1306.0,281.0,2649.0,2099.0,Včera,Cihlová,Novostavba,Klidná část obce,122.0,,B,Patrový,2,1,,231.0,,Řadový,14862064,50.111195,14.317559,"Edvardova, Praha 6 - Nebušice",10,50.0875,14.4213889,7.860586936627232
82,2564539724,2128.0,259.0,541.0,62.0,221.0,201.0,1066.0,957.0,287.0,1627.0,1127.0,Včera,Cihlová,Velmi dobrý,,139.0,,G,Patrový,2 včetně 1 podzemního,1,,337.0,1,Řadový,16490000,50.128799,14.430197,"Gdaňská, Praha 8 - Bohnice",10,50.0875,14.4213889,4.634999492560394
83,3367097676,3375.0,288.0,682.0,420.0,475.0,766.0,721.0,402.0,340.0,424.0,3099.0,Včera,Cihlová,Velmi dobrý,Klidná část obce,155.0,,D,Patrový,,1,,306.0,6,Řadový,15250000,50.025772,14.502305,"Malebná, Praha 4 - Chodov",10,50.0875,14.4213889,8.971167829351097
84,1931527500,1231.0,1021.0,1416.0,122.0,1225.0,503.0,2269.0,1339.0,94.0,4509.0,2960.0,Včera,Cihlová,Velmi dobrý,Klidná část obce,160.0,,G,Patrový,2,,,481.0,1,Samostatný,11990000,50.055031,14.57897,"Za pekárnou, Praha 10 - Dubeč",10,50.0875,14.4213889,11.811666773196114
85,231806028,1966.0,124.0,0.0,102.0,1544.0,139.0,2114.0,1182.0,243.0,0.0,0.0,Včera,Cihlová,Velmi dobrý,Klidná část obce,250.0,Cena včetně provize RK a kompletního právního servisu,G,Patrový,3 včetně 1 podzemního,1,,679.0,,Samostatný,18990000,50.073452,14.680902,"Velimská, Praha 9 - Újezd nad Lesy",10,50.0875,14.4213889,18.58331804331443
86,2820650316,451.0,562.0,1509.0,250.0,745.0,490.0,987.0,1248.0,876.0,560.0,1219.0,Včera,Smíšená,Ve výstavbě,,194.0,"Cena včetně DPH, parkovacího stání a sklepu., včetně DPH, včetně provize, včetně právního servisu",B,Patrový,,,,201.0,,Řadový,25749000,50.061695,14.36879,"Na pomezí, Praha 5",10,50.0875,14.4213889,4.724753554277744
88,1268811084,1695.0,456.0,0.0,407.0,963.0,212.0,2014.0,381.0,369.0,0.0,0.0,Včera,Cihlová,Dobrý,Klidná část obce,144.0,Cena včetně právních a realitních služeb,D,Patrový,2,1,,612.0,,Samostatný,12900000,50.071884,14.663443,"Chotouchovská, Praha 9 - Újezd nad Lesy",10,50.0875,14.4213889,17.359111865538054
89,2042090828,1116.0,313.0,850.0,255.0,591.0,243.0,4101.0,986.0,180.0,3297.0,4455.0,Včera,Cihlová,Velmi dobrý,Klidná část obce,292.0,včetně právního servisu a provize RK.,E,Patrový,3,1,,602.0,1,Samostatný,21500000,50.152996,14.53371,"Na barikádách, Praha 9 - Čakovice",10,50.0875,14.4213889,10.82441116385582
90,944420428,1733.0,250.0,2326.0,169.0,108.0,108.0,2709.0,249.0,95.0,2767.0,358.0,Včera,Cihlová,Novostavba,Klidná část obce,261.0,,B,Patrový,3 včetně 1 podzemního,1,,335.0,1,Řadový,31890000,50.029022,14.371988,"Lipová alej, Praha 5 - Hlubočepy",10,50.0875,14.4213889,7.397235514048752
95,1700275276,613.0,223.0,443.0,213.0,373.0,363.0,223.0,1163.0,324.0,5080.0,300.0,Včera,Cihlová,Novostavba,,125.0,,B,Patrový,2,,,236.0,,,19950000,50.004955,14.411564,"Nesvadbova, Praha 4 - Modřany",10,50.0875,14.4213889,9.205357557804344
96,3313047116,1750.0,1702.0,1961.0,291.0,158.0,186.0,4168.0,1249.0,186.0,0.0,0.0,Včera,Smíšená,Novostavba,,151.0,,C,Patrový,2,,,500.0,,,19500000,50.01289,14.604807,Praha 10 - Benice,10,50.0875,14.4213889,15.502726564889842
97,2023409484,2057.0,922.0,2127.0,357.0,939.0,615.0,2201.0,1417.0,1287.0,930.0,1938.0,Včera,Cihlová,Projekt,,107.0,,A,Patrový,2,,,906.0,,,17350000,50.127144,14.529361,"Hůlkova, Praha 9 - Kbely",10,50.0875,14.4213889,8.872589544521206
98,3744818252,2027.0,871.0,2015.0,62.0,898.0,704.0,2097.0,1465.0,1230.0,1066.0,1711.0,Včera,Cihlová,Projekt,,152.0,,B,Patrový,2,1,,232.0,,,16495000,50.127144,14.529361,"Hůlkova, Praha 9 - Kbely",10,50.0875,14.4213889,8.872589544521206
99,4189500492,685.0,684.0,1582.0,321.0,631.0,683.0,3756.0,765.0,920.0,1748.0,3717.0,Včera,Cihlová,Velmi dobrý,,137.0,,C,Patrový,2,1,,455.0,,,16499000,50.030586,14.299001,"Ke Zbuzanům, Praha 5 - Řeporyje",10,50.0875,14.4213889,10.788131311312398
101,698496076,1853.0,653.0,0.0,44.0,725.0,786.0,2214.0,917.0,663.0,0.0,0.0,Včera,Cihlová,Novostavba,,100.0,,B,Patrový,2,,,243.0,,,13370000,50.071953,14.652803,"Staroújezdská, Praha 9 - Újezd nad Lesy",10,50.0875,14.4213889,16.60305228213086
102,195179596,1853.0,653.0,0.0,44.0,725.0,786.0,2214.0,917.0,663.0,0.0,0.0,Včera,Cihlová,Novostavba,,100.0,,B,Patrový,2,,,240.0,,,12920000,50.071953,14.652803,"Staroújezdská, Praha 9 - Újezd nad Lesy",10,50.0875,14.4213889,16.60305228213086
103,3585225804,1813.0,589.0,0.0,64.0,705.0,772.0,2172.0,846.0,674.0,0.0,0.0,Včera,Cihlová,Novostavba,,144.0,,B,Patrový,2,1,,465.0,,,17500000,50.072075,14.653809,"Staroújezdská, Praha 9 - Újezd nad Lesy",10,50.0875,14.4213889,16.673025969808872
106,2779366732,369.0,584.0,718.0,131.0,421.0,488.0,1149.0,919.0,114.0,803.0,815.0,Včera,Cihlová,Po rekonstrukci,Klidná část obce,180.0,,G,Patrový,2 včetně 1 podzemního,1,,1136.0,30,V bloku,18500000,50.098942,14.538219,"Oborská, Praha 9 - Kyje",10,50.0875,14.4213889,8.430749747603517
107,1389659468,1324.0,267.0,1184.0,193.0,332.0,546.0,598.0,2632.0,145.0,1041.0,454.0,Včera,Cihlová,Dobrý,Klidná část obce,130.0,Neplatíte provizi RK.,G,Patrový,2 včetně 1 podzemního,1,,214.0,43,Samostatný,15500000,50.046516,14.479286,"Severní IV, Praha 4 - Záběhlice",10,50.0875,14.4213889,6.151827792596226
108,3202872652,3332.0,775.0,1652.0,267.0,967.0,608.0,1848.0,1302.0,302.0,1699.0,1089.0,Včera,Cihlová,Dobrý,Klidná část obce,230.0,,,Patrový,3,1,,574.0,1,Samostatný,18750000,50.141819,14.473962,"Říjnová, Praha 8 - Ďáblice",10,50.0875,14.4213889,7.10873760957033
110,3308189260,3213.0,719.0,1989.0,60.0,714.0,411.0,2121.0,1667.0,305.0,2071.0,1424.0,Včera,Smíšená,Novostavba,,188.0,včetně DPH,B,Patrový,,,,305.0,,Řadový,18966713,50.14711,14.47401,"U spojů, Praha 8 - Ďáblice",10,50.0875,14.4213889,7.616524949606711
111,568640844,2209.0,330.0,1106.0,129.0,332.0,624.0,2094.0,2146.0,210.0,2355.0,1770.0,Včera,Cihlová,Velmi dobrý,Klidná část obce,132.0,"včetně provize, včetně právního servisu",D,Patrový,,,,287.0,,Samostatný,11990000,50.147667,14.488449,"Chřibská, Praha 8 - Ďáblice",10,50.0875,14.4213889,8.223206574820695
114,1080677708,1788.0,316.0,5719.0,420.0,624.0,606.0,2147.0,984.0,311.0,0.0,0.0,Včera,Cihlová,Velmi dobrý,Klidná část obce,141.0,Cena je včetně provize a kompletního právního servisu,G,Patrový,2,1,,410.0,,Rohový,13490000,50.07486,14.647324,"Dražická, Praha 9 - Újezd nad Lesy",10,50.0875,14.4213889,16.182509854847737
115,4012094796,2944.0,1834.0,3888.0,367.0,337.0,2023.0,0.0,2564.0,385.0,0.0,0.0,Včera,Cihlová,Novostavba,Klidná část obce,170.0,,,Patrový,2,,,493.0,,,15999000,50.040073,14.632935,"Nad mlýnem, Praha - Královice",10,50.0875,14.4213889,15.994528743917597
116,1082955084,4813.0,565.0,924.0,551.0,759.0,317.0,2069.0,563.0,575.0,4129.0,1928.0,Včera,Cihlová,Velmi dobrý,Klidná část obce,177.0,uvedená cena je vč. garážového stání a provize RK,B,Patrový,2,1,,430.0,,Řadový,19250000,49.99522,14.475376,"Ke kašně, Praha 4 - Písnice",10,50.0875,14.4213889,10.961457259139289
118,712029516,1025.0,807.0,1953.0,61.0,565.0,438.0,1032.0,2027.0,493.0,1029.0,734.0,Včera,Smíšená,Po rekonstrukci,Centrum obce,364.0,,C,Patrový,4,1,,266.0,1,Řadový,24950000,50.064026,14.377879,"Štochlova, Praha 5 - Košíře",10,50.0875,14.4213889,4.056332314653013
119,1650181452,758.0,291.0,433.0,148.0,384.0,781.0,2415.0,881.0,307.0,938.0,2884.0,Včera,Cihlová,Novostavba,,178.0,,A,Patrový,2,1,,296.0,,,19850000,50.037739,14.316081,"Jáchymovská, Praha - Řeporyje",10,50.0875,14.4213889,9.333911871198389
120,960562252,3877.0,182.0,2369.0,109.0,525.0,473.0,1437.0,400.0,49.0,2287.0,1357.0,Včera,Smíšená,Velmi dobrý,,226.0,,G,Patrový,3,1,,542.0,1,Řadový,19500000,50.139767,14.451536,"Ústecká, Praha 8 - Dolní Chabry",10,50.0875,14.4213889,6.19663957049527
121,3838231884,1752.0,441.0,1432.0,59.0,645.0,560.0,4398.0,561.0,582.0,4167.0,4741.0,Včera,Montovaná,Velmi dobrý,Klidná část obce,188.0,,,Patrový,3,1,,198.0,,Řadový,11463000,50.148052,14.574371,"Chvojenecká, Praha 9 - Vinoř",10,50.0875,14.4213889,12.818295764245248
122,3123078220,4752.0,147.0,1240.0,122.0,285.0,98.0,136.0,128.0,272.0,1513.0,4142.0,Včera,Cihlová,Velmi dobrý,,150.0,,,Přízemní,,1,,980.0,,,18000000,50.01432,14.513108,"K Hrnčířům, Praha 4 - Šeberov",10,50.0875,14.4213889,10.445073789095693
123,1598833740,1933.0,353.0,692.0,209.0,295.0,221.0,1396.0,864.0,35.0,733.0,1452.0,Včera,Cihlová,Po rekonstrukci,,231.0,,G,Patrový,,1,,626.0,,Samostatný,18990000,50.051865,14.324286,"U Cikánky, Praha 5 - Stodůlky",10,50.0875,14.4213889,7.9831342972558685
127,1620399180,597.0,1322.0,1956.0,145.0,813.0,844.0,1544.0,2434.0,519.0,619.0,784.0,Včera,Cihlová,Ve výstavbě,Klidná část obce,140.0,,B,Patrový,2,,,531.0,,Samostatný,15900000,50.055294,14.37969,Praha 5,10,50.0875,14.4213889,4.65629671268995
130,3937080396,1706.0,1020.0,1563.0,54.0,1839.0,507.0,2447.0,1052.0,413.0,3828.0,4688.0,Včera,Cihlová,Novostavba,Klidná část obce,276.0,,C,Patrový,3,2,,903.0,1,Samostatný,34990000,50.020641,14.579241,Praha 10 - Pitkovice,10,50.0875,14.4213889,13.500998647146012
132,2020501596,1770.0,155.0,1037.0,123.0,409.0,465.0,788.0,654.0,1217.0,1364.0,516.0,Včera,Cihlová,K demolici,Centrum obce,69.0,,G,Přízemní,2 včetně 1 podzemního,,,99.0,1,Řadový,7999999,50.08794,14.48729,"Za Vackovem, Praha 3 - Žižkov",10,50.0875,14.4213889,4.701917386573554
133,3556124764,2133.0,612.0,2648.0,153.0,411.0,304.0,3216.0,914.0,217.0,3248.0,2730.0,Dnes,Cihlová,Dobrý,Klidná část obce,330.0,,G,Patrový,2,1,,739.0,9,Samostatný,24900000,50.127518,14.365813,"Dolina, Praha 6 - Lysolaje",10,50.0875,14.4213889,5.958951401035136
134,353797452,1121.0,562.0,1309.0,77.0,267.0,102.0,863.0,1041.0,132.0,1894.0,3987.0,Dnes,Cihlová,Novostavba,,263.0,včetně poplatků,D,Patrový,,,,437.0,,Samostatný,23890000,50.108398,14.603844,"Březovická, Praha - Horní Počernice",10,50.0875,14.4213889,13.220164915137646
135,1996638028,772.0,606.0,2841.0,153.0,1014.0,841.0,2399.0,1876.0,575.0,2734.0,479.0,Včera,Cihlová,Dobrý,Klidná část obce,199.0,,G,Patrový,3 včetně 1 podzemního,1,,1273.0,,,23900000,50.033703,14.394406,"Pod Habrovou, Praha 5 - Hlubočepy",10,50.0875,14.4213889,6.284414875109986
137,3623937356,881.0,82.0,54.0,73.0,520.0,161.0,3846.0,1495.0,312.0,3473.0,4035.0,Včera,Smíšená,Po rekonstrukci,,164.0,"včetně poplatků, včetně provize, včetně právního servisu",,Patrový,,1,,213.0,,Řadový,10490000,50.156605,14.522437,"Schoellerova, Praha 9 - Čakovice",10,50.0875,14.4213889,10.532987843171954
138,1159890252,3255.0,2454.0,4388.0,113.0,1323.0,1323.0,5171.0,3010.0,151.0,0.0,0.0,Včera,Smíšená,Velmi dobrý,Klidná část obce,178.0,,G,Patrový,2,,,1005.0,,Samostatný,13900000,50.04977,14.629668,"Pod přehradou, Praha 10 - Hájek u Uhříněvsi",10,50.0875,14.4213889,15.446099897883553
139,2240251212,1321.0,1002.0,1594.0,302.0,1103.0,533.0,2408.0,1117.0,319.0,4544.0,2814.0,Včera,Cihlová,Velmi dobrý,,280.0,,C,Patrový,2,1,,599.0,,Samostatný,16800000,50.05769,14.57636,"Stinkovská, Praha 10 - Dubeč",10,50.0875,14.4213889,11.5458257650839
141,1835500876,1735.0,886.0,1866.0,284.0,442.0,134.0,1354.0,835.0,811.0,2058.0,744.0,Včera,Cihlová,Velmi dobrý,,230.0,,D,Patrový,3,1,,355.0,,Řadový,22990000,50.077068,14.376623,"Nad Palatou, Praha 5 - Smíchov",10,50.0875,14.4213889,3.3982590677380564
149,4195682124,817.0,241.0,542.0,114.0,337.0,142.0,3855.0,1237.0,18.0,3201.0,4165.0,Včera,Cihlová,Novostavba,,200.0,včetně DPH,B,Patrový,,,,821.0,,Samostatný,20478000,50.153233,14.528682,Praha 9 - Čakovice,10,50.0875,14.4213889,10.580136449473127
151,2993337932,211.0,326.0,1418.0,27.0,510.0,401.0,1231.0,1426.0,789.0,310.0,1444.0,Včera,Cihlová,Před rekonstrukcí,,164.0,,,Patrový,3 včetně 1 podzemního,,,736.0,34,Samostatný,19900000,50.056969,14.369031,"Klikatá, Praha 5 - Jinonice",10,50.0875,14.4213889,5.048541848387872
152,3409728588,2761.0,167.0,976.0,169.0,379.0,256.0,344.0,848.0,297.0,2022.0,1595.0,Dnes,Cihlová,Dobrý,Klidná část obce,242.0,,,Patrový,,1,,498.0,,Rohový,14990000,50.137665,14.432498,"Ke hřišti, Praha 8 - Čimice",10,50.0875,14.4213889,5.634060931857865
153,725661004,4057.0,106.0,1815.0,112.0,353.0,353.0,2329.0,1849.0,176.0,2315.0,4493.0,Včera,Cihlová,Novostavba,Klidná část obce,479.0,,C,Patrový,2,,,627.0,,Samostatný,39900000,50.013084,14.544675,"Nad výpustí, Praha - Újezd u Průhonic",10,50.0875,14.4213889,12.08124049282664
154,2855175500,1582.0,390.0,2001.0,206.0,490.0,366.0,862.0,281.0,402.0,537.0,205.0,Včera,Cihlová,Dobrý,,365.0,,G,Patrový,,,,937.0,,Samostatný,28900000,50.119457,14.457105,"S. K. Neumanna, Praha 8 - Libeň",10,50.0875,14.4213889,4.372160300445107
156,840496460,1836.0,293.0,681.0,321.0,47.0,61.0,2178.0,293.0,244.0,431.0,1684.0,Včera,Cihlová,Ve výstavbě,Centrum obce,138.0,Neplatíte žádnou provizi,C,Patrový,3,,,180.0,,,21900000,50.048607,14.313285,"U kašny, Praha 5 - Stodůlky",10,50.0875,14.4213889,8.84510572481484
157,4293186892,494.0,378.0,2508.0,163.0,413.0,231.0,1430.0,2358.0,1229.0,5390.0,1473.0,Včera,Cihlová,Po rekonstrukci,,150.0,,G,Patrový,,,,736.0,,Samostatný,19990000,50.008675,14.381797,Praha 5 - Velká Chuchle,10,50.0875,14.4213889,9.209562006906092
158,2540328012,1441.0,989.0,2088.0,90.0,756.0,1041.0,1208.0,2146.0,127.0,1209.0,1154.0,Včera,Smíšená,Projekt,,148.0,"včetně DPH, včetně provize, včetně právního servisu",B,Patrový,,,,317.0,,Řadový,28946000,50.107578,14.352712,"V Trníčku, Praha 6 - Dejvice",10,50.0875,14.4213889,5.383456143053492
160,3713303884,637.0,97.0,4718.0,34.0,351.0,40.0,854.0,1146.0,467.0,0.0,4154.0,31.01.2024,Smíšená,Velmi dobrý,Klidná část obce,248.0,"včetně poplatků, včetně provize, včetně právního servisu",G,Patrový,,,,264.0,45,Samostatný,12700000,49.966251,14.39402,"Na plácku, Praha 5 - Zbraslav",10,50.0875,14.4213889,13.62329164875726
161,391894348,1178.0,977.0,1298.0,249.0,818.0,861.0,1945.0,1238.0,593.0,1415.0,946.0,31.01.2024,Cihlová,Velmi dobrý,,136.0,"včetně provize, včetně právního servisu",G,Patrový,,1,,336.0,,Řadový,17990000,50.095215,14.52704,"Cedrová, Praha 9 - Hloubětín",10,50.0875,14.4213889,7.58568771689106
162,3611608396,1346.0,160.0,0.0,186.0,240.0,173.0,1704.0,833.0,76.0,0.0,0.0,31.01.2024,Cihlová,Před rekonstrukcí,Klidná část obce,100.0,Kupující provizi RK neplatí.,G,Patrový,,28,,1125.0,,Samostatný,11990000,50.07822,14.650736,"Starokolínská, Praha 9 - Újezd nad Lesy",10,50.0875,14.4213889,16.396745921543253
164,3394487628,2709.0,340.0,1478.0,258.0,658.0,160.0,456.0,1366.0,486.0,2772.0,2202.0,31.01.2024,Smíšená,Dobrý,Klidná část obce,157.0,Cena včetně provize a právního servisu.,C,Patrový,3,1,,306.0,20,Rohový,12890000,50.143696,14.427792,"K mlýnu, Praha 8 - Čimice",10,50.0875,14.4213889,6.265366980935304
166,2759902540,1165.0,378.0,307.0,70.0,814.0,168.0,4072.0,1486.0,430.0,3764.0,4216.0,31.01.2024,Dřevěná,Velmi dobrý,Klidná část obce,250.0,včetně provize a právního servisu,,Patrový,2,1,,514.0,,Samostatný,15544500,50.159271,14.522039,"Králova, Praha 9 - Třeboradice",10,50.0875,14.4213889,10.732039683166139
167,154912076,100.0,843.0,1847.0,169.0,634.0,191.0,432.0,994.0,342.0,1193.0,629.0,Včera,Cihlová,Velmi dobrý,,210.0,,G,Patrový,,,1.0,355.0,1,Řadový,26000000,50.063915,14.36301,"Průchova, Praha 5 - Košíře",10,50.0875,14.4213889,4.9227607629197365
168,1189791052,4299.0,512.0,840.0,33.0,572.0,306.0,398.0,660.0,67.0,983.0,3905.0,31.01.2024,Cihlová,Dobrý,Rušná část obce,174.0,Včetně provize a právního servisu,G,Patrový,2,1,,444.0,9,Samostatný,15670000,50.01897,14.510827,"U zemníku, Praha 4 - Šeberov",10,50.0875,14.4213889,9.941912338130585
169,69232988,0.0,365.0,2414.0,190.0,1528.0,703.0,1797.0,1266.0,396.0,3176.0,4637.0,31.01.2024,Cihlová,Dobrý,Klidná část obce,230.0,,D,Patrový,2,2,1.0,906.0,,Samostatný,19500000,49.999962,14.519221,"Karfíkova, Praha 4 - Šeberov",10,50.0875,14.4213889,11.981355132625211
170,157291596,733.0,308.0,2735.0,129.0,485.0,334.0,789.0,359.0,315.0,3271.0,0.0,31.01.2024,Cihlová,Velmi dobrý,Klidná část obce,357.0,,G,Patrový,,1,,679.0,,Samostatný,22900000,50.114414,14.622386,"Votuzská, Praha - Horní Počernice",10,50.0875,14.4213889,14.645054718448066
171,1027986764,1066.0,558.0,2876.0,69.0,494.0,490.0,1054.0,553.0,481.0,3442.0,0.0,31.01.2024,Cihlová,Dobrý,,88.0,,,Přízemní,,1,,812.0,1,,13990000,50.111568,14.625378,"Ve žlíbku, Praha - Horní Počernice",10,50.0875,14.4213889,14.79393262970964
172,3375166796,2855.0,267.0,1190.0,167.0,315.0,243.0,633.0,215.0,171.0,871.0,2090.0,31.01.2024,Cihlová,Velmi dobrý,,235.0,"včetně DPH, včetně provize, včetně právního servisu",G,Patrový,,,,330.0,1,Rohový,18950000,50.035496,14.512281,"Vycpálkova, Praha 4 - Chodov",10,50.0875,14.4213889,8.691065543633641
173,4141164364,478.0,452.0,727.0,237.0,0.0,744.0,2915.0,684.0,322.0,1130.0,3057.0,31.01.2024,Cihlová,Ve výstavbě,,218.0,včetně provize,B,Patrový,,,,300.0,,Řadový,21585000,50.037949,14.312969,"Radouňova, Praha 5 - Řeporyje",10,50.0875,14.4213889,9.500147009890844
174,2724308300,1666.0,162.0,1135.0,523.0,341.0,120.0,997.0,841.0,156.0,579.0,186.0,31.01.2024,Kamenná,Velmi dobrý,,110.0,,G,Patrový,,,,169.0,,,16500000,50.076481,14.497243,"Dvouletky, Praha 10 - Strašnice",10,50.0875,14.4213889,5.5493525991757675
176,2299946060,1266.0,73.0,2367.0,46.0,337.0,169.0,2848.0,280.0,78.0,3754.0,2659.0,31.01.2024,Cihlová,Novostavba,,410.0,včetně provize a veškerých právních služeb,B,Patrový,,1,,520.0,,,30900000,50.132973,14.376801,Praha 6 - Suchdol,10,50.0875,14.4213889,5.972994579740879
177,50193740,692.0,473.0,495.0,242.0,420.0,420.0,332.0,1158.0,388.0,408.0,1641.0,31.01.2024,Cihlová,Před rekonstrukcí,,378.0,včetně provize a veškerých právních služeb,,Patrový,,1,1.0,719.0,,,37990000,50.039551,14.450837,"Nad pískovnou, Praha 4 - Krč",10,50.0875,14.4213889,5.731084103487134
180,3781539148,451.0,562.0,1509.0,250.0,745.0,490.0,987.0,1248.0,876.0,560.0,1219.0,31.01.2024,Smíšená,Novostavba,,251.0,"Cena včetně DPH, parkovacího stání a sklepu., včetně DPH, včetně provize, včetně právního servisu",B,Patrový,,,,330.0,,Řadový,36950000,50.061695,14.36879,"Na pomezí, Praha 5",10,50.0875,14.4213889,4.724753554277744
181,2585974092,808.0,301.0,1562.0,54.0,1039.0,574.0,1566.0,433.0,309.0,0.0,1211.0,31.01.2024,Cihlová,Velmi dobrý,Klidná část obce,135.0,,B,Patrový,,,,297.0,7,Řadový,16500000,49.991814,14.415645,"Do koutů, Praha - Praha 12",10,50.0875,14.4213889,10.647702289272992
182,3742987340,1440.0,223.0,1418.0,144.0,655.0,255.0,663.0,1438.0,310.0,687.0,582.0,31.01.2024,Cihlová,Po rekonstrukci,,397.0,,G,Patrový,,1,,655.0,1,,39000000,50.064079,14.386883,"Peroutkova, Praha 5 - Smíchov",10,50.0875,14.4213889,3.584106522111412
183,3622065228,1379.0,225.0,611.0,144.0,582.0,170.0,743.0,832.0,633.0,4181.0,667.0,31.01.2024,Smíšená,Velmi dobrý,,221.0,,G,Patrový,,1,,390.0,18,,21300000,50.015354,14.410814,"Pod lomem, Praha 4 - Modřany",10,50.0875,14.4213889,8.057721233665372
184,3453965388,683.0,1080.0,2122.0,290.0,890.0,648.0,1346.0,2225.0,271.0,596.0,626.0,31.01.2024,Cihlová,Velmi dobrý,,630.0,,G,Patrový,,1,,832.0,,,40000000,50.059139,14.387884,Praha 5 - Radlice,10,50.0875,14.4213889,3.9575931877777637
185,2305909836,428.0,639.0,720.0,189.0,576.0,250.0,657.0,1143.0,322.0,679.0,1644.0,31.01.2024,Smíšená,Velmi dobrý,,357.0,,D,Patrový,,,,594.0,1,,29900000,50.037979,14.445215,"Krčská, Praha 4 - Krč",10,50.0875,14.4213889,5.763148694683935
186,3976062028,4456.0,452.0,1349.0,390.0,298.0,208.0,329.0,431.0,437.0,1436.0,3776.0,31.01.2024,Cihlová,Novostavba,,382.0,,B,Patrový,,1,,1049.0,,,39900000,50.014542,14.507874,"Pouchova, Praha 4 - Šeberov",10,50.0875,14.4213889,10.195264735717238
187,3212428620,1006.0,388.0,1360.0,363.0,768.0,587.0,1416.0,441.0,190.0,2784.0,1097.0,31.01.2024,Cihlová,Velmi dobrý,,227.0,,G,Patrový,,1,,424.0,,,45000000,50.050575,14.552394,"U Golfu, Praha 10 - Horní Měcholupy",10,50.0875,14.4213889,10.211881688831342
188,362255692,1892.0,897.0,2425.0,180.0,357.0,769.0,1878.0,1760.0,411.0,1794.0,1816.0,31.01.2024,Cihlová,Velmi dobrý,,270.0,,G,Patrový,,1,,653.0,,,29900000,50.111156,14.33788,"Malý dvůr, Praha 6 - Nebušice",10,50.0875,14.4213889,6.511394288689694
189,4219442508,2348.0,165.0,1676.0,142.0,1320.0,236.0,1784.0,139.0,1018.0,2668.0,3842.0,31.01.2024,Cihlová,Projekt,Klidná část obce,88.0,,,Patrový,2,,,419.0,,Samostatný,14600000,50.022873,14.563279,Praha 10 - Křeslice,10,50.0875,14.4213889,12.41999865184347
190,94803276,1654.0,849.0,549.0,52.0,887.0,1178.0,2241.0,1951.0,218.0,2510.0,2120.0,31.01.2024,Cihlová,Projekt,Klidná část obce,134.0,,,Patrový,2,,,400.0,,V bloku,17000000,50.148651,14.496178,"Kostelecká, Praha",10,50.0875,14.4213889,8.64118222155577
192,2800553052,778.0,787.0,3959.0,85.0,988.0,507.0,3341.0,282.0,615.0,0.0,2938.0,31.01.2024,Smíšená,Dobrý,Klidná část obce,330.0,"včetně provize, včetně právního servisu",G,Patrový,3 včetně 1 podzemního,1,,541.0,1,Samostatný,16000000,49.992916,14.366013,"Strážovská, Praha 5 - Radotín",10,50.0875,14.4213889,11.236197773942171
193,1842734412,1138.0,943.0,1139.0,488.0,871.0,364.0,1679.0,1294.0,813.0,1208.0,1254.0,31.01.2024,Smíšená,Velmi dobrý,Klidná část obce,98.0,Dohoda možná. V případě více zájemců může RK využít pro výběr kupujícího formu aukce.,G,Přízemní,1,1,,229.0,,Samostatný,7390000,50.117191,14.5536,"Lužní, Praha 9 - Kyje",10,50.0875,14.4213889,9.990872065598566
194,2752812108,571.0,108.0,4105.0,175.0,214.0,172.0,1153.0,1168.0,41.0,0.0,3503.0,31.01.2024,Cihlová,Velmi dobrý,Rušná část obce,274.0,"včetně DPH, včetně poplatků, včetně provize, včetně právního servisu",G,Patrový,3 včetně 1 podzemního,,,270.0,16,Samostatný,17520000,49.969566,14.388981,"Elišky Přemyslovny, Praha 5 - Zbraslav",10,50.0875,14.4213889,13.316426790319227
195,3129402700,381.0,386.0,901.0,292.0,279.0,488.0,515.0,1013.0,270.0,397.0,349.0,31.01.2024,Cihlová,Po rekonstrukci,,248.0,,B,Přízemní,1. podlaží,1,,220.0,1,Řadový,29300000,50.096313,14.341279,"Ke dvoru, Praha 6 - Vokovice",10,50.0875,14.4213889,5.798290122905771
198,3857442124,588.0,508.0,628.0,190.0,463.0,87.0,610.0,980.0,292.0,608.0,1480.0,31.01.2024,Cihlová,Dobrý,Klidná část obce,301.0,"vč. provize, základních právních služeb, v případě rychlého jednání je cena k diskuzi",G,Patrový,3 včetně 1 podzemního,1,,657.0,1,Samostatný,24950000,50.039322,14.444142,"Krčská, Praha 4 - Krč",10,50.0875,14.4213889,5.597930878802814
200,989729868,1750.0,1702.0,1961.0,291.0,158.0,186.0,4168.0,1249.0,186.0,0.0,0.0,31.01.2024,Smíšená,Projekt,,187.0,,B,Patrový,2,,,509.0,,,21600000,50.01289,14.604807,Praha 10 - Benice,10,50.0875,14.4213889,15.502726564889842
202,1897993292,2027.0,904.0,0.0,188.0,1140.0,894.0,1331.0,1467.0,1413.0,0.0,0.0,31.01.2024,Cihlová,Velmi dobrý,,358.0,+ poplatky: žádné,G,Patrový,2,1,1.0,1157.0,,,24000000,49.955517,14.370275,"Vyvýšená, Praha 5 - Lipence",10,50.0875,14.4213889,15.123335800462078
204,1419044172,613.0,223.0,443.0,213.0,373.0,363.0,223.0,1163.0,324.0,5080.0,300.0,31.01.2024,Cihlová,Novostavba,,124.0,,B,Patrový,2,,,330.0,,,20900000,50.004955,14.411564,"Nesvadbova, Praha 4 - Modřany",10,50.0875,14.4213889,9.205357557804344
205,4258903372,1587.0,1268.0,1769.0,328.0,1487.0,320.0,2765.0,1469.0,236.0,4267.0,5022.0,31.01.2024,Cihlová,Velmi dobrý,,181.0,,B,Patrový,2,1,,300.0,,,18900000,50.021111,14.584672,"Křemenáčová, Praha 10 - Pitkovice",10,50.0875,14.4213889,13.798229829952431
208,1153655884,725.0,172.0,644.0,155.0,353.0,858.0,2422.0,795.0,216.0,1064.0,2739.0,31.01.2024,Cihlová,Velmi dobrý,,250.0,"včetně provize, včetně právního servisu",G,Patrový,,1,,570.0,,Řadový,14400000,50.037067,14.320703,"Smíchovská, Praha 5 - Řeporyje",10,50.0875,14.4213889,9.116131284537234
210,2331235660,1990.0,610.0,1623.0,19.0,564.0,398.0,1214.0,121.0,615.0,869.0,431.0,Včera,Cihlová,Dobrý,,285.0,,G,Patrový,,1,,870.0,,Samostatný,40685000,50.064552,14.510792,Praha 10 - Strašnice,10,50.0875,14.4213889,6.871313389911729
211,3917399372,757.0,253.0,815.0,116.0,235.0,289.0,3751.0,1037.0,79.0,2024.0,527.0,31.01.2024,Cihlová,Po rekonstrukci,,590.0,,G,Patrový,,,,1011.0,,Samostatný,46363500,50.070515,14.301612,"Ke Kaménce, Praha 6 - Řepy",10,50.0875,14.4213889,8.753125666326122
212,3997836364,3213.0,719.0,1989.0,60.0,714.0,411.0,2121.0,1667.0,305.0,2071.0,1424.0,31.01.2024,Smíšená,Novostavba,,161.0,včetně DPH,B,Patrový,,,,318.0,,Řadový,14595304,50.147091,14.473902,"U spojů, Praha 8 - Ďáblice",10,50.0875,14.4213889,7.61089560878993
214,2578417484,3296.0,2519.0,4400.0,110.0,1262.0,1262.0,5105.0,3065.0,92.0,0.0,0.0,31.01.2024,Cihlová,Novostavba,Klidná část obce,165.0,cena požadovaná majitelem,G,Patrový,3,,,219.0,,Samostatný,13500000,50.050491,14.629603,"Pod přehradou, Praha 10 - Hájek u Uhříněvsi",10,50.0875,14.4213889,15.41993851915662
217,810730828,2735.0,1619.0,0.0,222.0,536.0,536.0,3433.0,2075.0,300.0,0.0,0.0,31.01.2024,Cihlová,Velmi dobrý,Klidná část obce,370.0,,B,Patrový,3,,1.0,816.0,,Samostatný,23700000,50.064308,14.639278,"Pod Hořavkou, Praha 9 - Koloděje",10,50.0875,14.4213889,15.761357472956737
218,2700264780,1030.0,336.0,1392.0,159.0,83.0,295.0,774.0,2547.0,233.0,726.0,831.0,31.01.2024,Cihlová,Před rekonstrukcí,Klidná část obce,130.0,,G,Patrový,2,,,344.0,,Řadový,15950000,50.043911,14.476289,"Severní VII, Praha 4 - Záběhlice",10,50.0875,14.4213889,6.232788786186819
219,4144928076,2038.0,535.0,2589.0,85.0,329.0,332.0,3206.0,821.0,200.0,3264.0,2670.0,31.01.2024,Cihlová,Velmi dobrý,,155.0,,G,Patrový,2,1,,309.0,,,23700000,50.127541,14.36661,"Do zátiší, Praha 6 - Lysolaje",10,50.0875,14.4213889,5.923221410346657
220,3310540108,2788.0,1823.0,1585.0,738.0,1941.0,1906.0,4563.0,1611.0,936.0,4453.0,3799.0,31.01.2024,Cihlová,Novostavba,,50.0,"včetně poplatků, včetně provize, včetně právního servisu",,Patrový,,,,538.0,,Samostatný,6000000,50.124397,14.302733,"Preláta, Praha 6 - Přední Kopanina",10,50.0875,14.4213889,9.404324515391446
221,2280576588,1927.0,230.0,0.0,175.0,1652.0,230.0,2058.0,1223.0,313.0,0.0,0.0,31.01.2024,Cihlová,Velmi dobrý,Klidná část obce,252.0,"včetně provize RK, právního a hypotečního servisu",C,Patrový,2,28,1.0,647.0,2,Samostatný,19990000,50.074329,14.681655,"Kojická, Praha 9 - Újezd nad Lesy",10,50.0875,14.4213889,18.62876924841114
226,1987691852,836.0,569.0,4184.0,45.0,685.0,510.0,3036.0,1134.0,653.0,4705.0,0.0,31.01.2024,Cihlová,Novostavba,Klidná část obce,154.0,,B,Patrový,2,,,457.0,,Samostatný,16700000,50.08049,14.626196,"Na Vaňhově, Praha 9 - Běchovice",10,50.0875,14.4213889,14.633709529270332
227,2045044300,758.0,675.0,625.0,134.0,476.0,404.0,586.0,1669.0,364.0,552.0,414.0,31.01.2024,Cihlová,Před rekonstrukcí,,148.0,,G,Patrový,4,,,153.0,,Řadový,10900000,50.114338,14.507671,"Pod Krocínkou, Praha - Vysočany",10,50.0875,14.4213889,6.839435230095664
228,534341452,2057.0,565.0,719.0,271.0,209.0,497.0,1740.0,581.0,254.0,754.0,1326.0,31.01.2024,Cihlová,Velmi dobrý,Klidná část obce,205.0,"včetně poplatků, včetně provize, včetně právního servisu, cena k jednání",G,Patrový,,1,,409.0,1,Rohový,28900000,50.05201,14.319457,"Voleníkova, Praha 5 - Stodůlky",10,50.0875,14.4213889,8.276390231715476
229,4097164620,1032.0,258.0,805.0,247.0,133.0,396.0,499.0,1352.0,227.0,1040.0,633.0,31.01.2024,Cihlová,Velmi dobrý,Klidná část obce,500.0,,,Patrový,4,,,210.0,,Rohový,25900000,50.051151,14.461794,"Vnější, Praha 4 - Michle",10,50.0875,14.4213889,4.965129543828996
230,196453708,1055.0,319.0,706.0,82.0,433.0,262.0,1624.0,1987.0,201.0,363.0,406.0,31.01.2024,Cihlová,Před rekonstrukcí,,235.0,Cena je četně provize a právního servisu.,G,Patrový,4 včetně 1 podzemního,1,,456.0,40,Rohový,27999000,50.071442,14.342606,"V úvalu, Praha 5 - Motol",10,50.0875,14.4213889,5.898427746094138
231,255100236,2760.0,1854.0,1366.0,190.0,2117.0,1980.0,4549.0,1777.0,337.0,4434.0,3259.0,31.01.2024,Cihlová,Novostavba,Klidná část obce,151.0,"vč. DPH, neplatíte provizi!",B,Patrový,2,,,340.0,,Rohový,13990000,50.119053,14.296082,"Nové domy, Praha 6 - Přední Kopanina",10,50.0875,14.4213889,9.601048667823305
234,3367232844,1850.0,668.0,900.0,102.0,486.0,254.0,3091.0,1794.0,295.0,2931.0,1676.0,31.01.2024,Cihlová,Velmi dobrý,Klidná část obce,1000.0,,G,Patrový,3,,,1046.0,,Řadový,45000000,50.073849,14.55639,"Nepravidelná, Praha 10 - Štěrboholy",10,50.0875,14.4213889,9.751823953995084
236,1514509644,1821.0,266.0,1518.0,184.0,185.0,492.0,1142.0,605.0,341.0,2180.0,1372.0,31.01.2024,Cihlová,Po rekonstrukci,,121.0,,,Patrový,4 včetně 1 podzemního,,,241.0,1,Řadový,13950000,50.02071,14.460234,"Pod Jalovým dvorem, Praha 4 - Krč",10,50.0875,14.4213889,7.927628307078079
237,774911052,905.0,206.0,887.0,226.0,396.0,145.0,1434.0,2053.0,322.0,550.0,281.0,31.01.2024,Cihlová,Před rekonstrukcí,,250.0,,,Patrový,3,,,785.0,1,,38000000,50.07032,14.344915,"Na Homolce, Praha 5 - Motol",10,50.0875,14.4213889,5.781688200221731
241,1439282508,714.0,299.0,2644.0,199.0,365.0,329.0,730.0,260.0,427.0,3188.0,0.0,30.01.2024,Cihlová,Před rekonstrukcí,Klidná část obce,140.0,"včetně provize, včetně právního servisu, cena k jednání",G,Patrový,2 včetně 1 podzemního,1,,626.0,48,Samostatný,13989000,50.112984,14.619368,"Běluňská, Praha 9 - Horní Počernice",10,50.0875,14.4213889,14.402486198390406
242,1096140108,2321.0,142.0,862.0,162.0,123.0,231.0,4062.0,430.0,224.0,4144.0,5047.0,31.01.2024,Smíšená,Dobrý,,223.0,,G,Patrový,2 včetně 1 podzemního,1,1.0,796.0,1,,17900000,50.146233,14.583093,"Mladoboleslavská, Praha 9 - Vinoř",10,50.0875,14.4213889,13.250807730008555
244,1273021772,665.0,119.0,710.0,122.0,308.0,842.0,2487.0,724.0,165.0,1141.0,2720.0,Dnes,Cihlová,Před rekonstrukcí,,246.0,,G,Patrový,2. podlaží,,,506.0,,Samostatný,16580800,50.035397,14.317707,"Všerubská, Praha 5 - Řeporyje",10,50.0875,14.4213889,9.399085085375049
247,3279279436,1139.0,502.0,0.0,381.0,1117.0,519.0,1382.0,457.0,539.0,0.0,0.0,30.01.2024,Cihlová,Velmi dobrý,,186.0,,D,Patrový,2 včetně 1 podzemního,1,,780.0,,Samostatný,19500000,50.07848,14.665552,"Holšická, Praha 9 - Újezd nad Lesy",10,50.0875,14.4213889,17.450186434018224
249,594920780,1080.0,799.0,909.0,220.0,531.0,324.0,1125.0,794.0,537.0,845.0,910.0,31.01.2024,Cihlová,Po rekonstrukci,,140.0,,,Patrový,2,,,979.0,1,Samostatný,8900000,50.064415,14.518741,Praha 10 - Hostivař,10,50.0875,14.4213889,7.406276810892241
253,3884832076,813.0,308.0,1610.0,224.0,325.0,367.0,672.0,668.0,644.0,724.0,1299.0,30.01.2024,Cihlová,Velmi dobrý,,225.0,info v kanceláři,G,Patrový,2,1,1.0,645.0,,Samostatný,28500000,50.100506,14.563307,"Hubáčkova, Praha 9 - Černý Most",10,50.0875,14.4213889,10.226483344780634
254,2926822732,492.0,181.0,1799.0,138.0,187.0,160.0,2279.0,1742.0,273.0,2079.0,2814.0,30.01.2024,Cihlová,Velmi dobrý,Klidná část obce,397.0,"cena včetně provize, právního a finančního servisu",C,Patrový,3,,,812.0,,Samostatný,20499000,50.127415,14.570873,"Drahelická, Praha 9 - Satalice",10,50.0875,14.4213889,11.547455094537193
255,146593100,1594.0,338.0,399.0,355.0,507.0,531.0,2923.0,706.0,327.0,434.0,1648.0,30.01.2024,Cihlová,Novostavba,,141.0,,B,Patrový,2,1,,345.0,,Řadový,20990000,50.049706,14.302971,"Kecova, Praha 5 - Stodůlky",10,50.0875,14.4213889,9.438959551616279
256,1216869708,674.0,95.0,778.0,86.0,370.0,250.0,679.0,117.0,232.0,2610.0,1723.0,30.01.2024,Cihlová,Velmi dobrý,Centrum obce,250.0,Cena uvedena vč. provize a právního servisu,D,Patrový,3,1,1.0,802.0,70,Samostatný,19990000,50.04472,14.557755,"Lochotínská, Praha 10 - Horní Měcholupy",10,50.0875,14.4213889,10.833547151263714
258,1714267468,0.0,518.0,1562.0,536.0,1342.0,114.0,2372.0,1746.0,480.0,3719.0,4289.0,30.01.2024,Cihlová,Dobrý,,163.0,,G,Patrový,,,,2921.0,,Samostatný,58390000,50.012802,14.510483,Praha 4 - Šeberov,10,50.0875,14.4213889,10.462159067207043
259,3590317900,842.0,704.0,1204.0,341.0,830.0,921.0,1727.0,906.0,631.0,1285.0,998.0,30.01.2024,Cihlová,Velmi dobrý,,200.0,,D,Patrový,,,,674.0,,Samostatný,19998000,50.105247,14.540254,Praha 9 - Hloubětín,10,50.0875,14.4213889,8.705421858345765
265,4276729164,1340.0,836.0,1457.0,218.0,770.0,372.0,1552.0,968.0,845.0,0.0,1315.0,30.01.2024,Cihlová,Novostavba,,127.0,"Cena vč. DPH, vč. provize",B,Patrový,2. podlaží z celkem 2,,,320.0,6,Řadový,17300000,49.993011,14.42289,"Do koutů, Praha 4 - Modřany",10,50.0875,14.4213889,10.507244299062108
266,1642513740,742.0,237.0,2587.0,176.0,263.0,231.0,719.0,219.0,484.0,3140.0,0.0,30.01.2024,Cihlová,Dobrý,Klidná část obce,195.0,"včetně právního servisu, odměny RK, zajištění hypotečního úvěru",G,Patrový,2,38,,478.0,,Řadový,14150000,50.112602,14.620954,"U jeslí, Praha 9 - Horní Počernice",10,50.0875,14.4213889,14.505236564781388
267,1613878604,3841.0,278.0,2214.0,130.0,703.0,385.0,1575.0,571.0,166.0,2189.0,1264.0,30.01.2024,Cihlová,Velmi dobrý,Klidná část obce,252.0,,C,Patrový,2,1,,665.0,,Samostatný,27700000,50.144165,14.452774,"Žďárská, Praha 8 - Dolní Chabry",10,50.0875,14.4213889,6.686458937360722
268,1544390220,505.0,556.0,2525.0,299.0,603.0,749.0,2811.0,740.0,353.0,2620.0,2716.0,30.01.2024,Cihlová,Dobrý,Klidná část obce,320.0,"včetně provize, včetně právního servisu",G,Patrový,2 včetně 1 podzemního,2,,1016.0,1,Samostatný,16000000,50.13044,14.557678,"Xaverovská, Praha 9 - Kbely",10,50.0875,14.4213889,10.828631827388874
270,555722060,2928.0,639.0,865.0,561.0,590.0,249.0,544.0,1009.0,580.0,1601.0,2050.0,30.01.2024,Cihlová,Před rekonstrukcí,Okraj obce,640.0,,,Patrový,3,,,1650.0,,Samostatný,44100000,50.018299,14.480502,"K Borovíčku, Praha 4 - Kunratice",10,50.0875,14.4213889,8.776221509848902
271,223794508,0.0,518.0,1562.0,536.0,1342.0,114.0,2372.0,1746.0,480.0,3719.0,4289.0,30.01.2024,Cihlová,Dobrý,,163.0,,G,Patrový,,,,2182.0,,Samostatný,43620000,50.012802,14.510483,Praha 4 - Šeberov,10,50.0875,14.4213889,10.462159067207043
273,7193932,2178.0,355.0,2284.0,309.0,515.0,346.0,3156.0,2174.0,421.0,5459.0,3876.0,Včera,Smíšená,Před rekonstrukcí,,205.0,,G,Patrový,3,1,,1482.0,1,Samostatný,19900000,50.058716,14.591214,"V Rohožníku, Praha 10 - Dubeč",10,50.0875,14.4213889,12.535227638047083
274,2594620492,657.0,171.0,2409.0,117.0,108.0,482.0,3089.0,291.0,112.0,2398.0,2639.0,30.01.2024,Cihlová,Novostavba,,137.0,,B,Patrový,,,,380.0,,,14900000,50.130577,14.549412,"Mladoboleslavská, Praha",10,50.0875,14.4213889,10.309895750613
276,2630006092,2315.0,257.0,3757.0,210.0,1800.0,408.0,3761.0,1938.0,1522.0,4619.0,2089.0,29.01.2024,Cihlová,Velmi dobrý,Klidná část obce,180.0,,A,Patrový,2,,,345.0,,Samostatný,15690000,50.004757,14.350155,"Nad vsí, Praha 5 - Lochkov",10,50.0875,14.4213889,10.513034796045709
277,3439240524,2047.0,500.0,0.0,406.0,975.0,251.0,2278.0,912.0,383.0,0.0,0.0,29.01.2024,Cihlová,Novostavba,Klidná část obce,118.0,,C,Přízemní,1,,,262.0,,Samostatný,11990000,50.070183,14.67463,"Lukovská, Praha 9 - Újezd nad Lesy",10,50.0875,14.4213889,18.172930090931263
278,728032588,2047.0,500.0,0.0,406.0,975.0,251.0,2278.0,912.0,383.0,0.0,0.0,29.01.2024,Cihlová,Novostavba,Klidná část obce,118.0,,C,Přízemní,1,,,394.0,,Samostatný,14490000,50.070183,14.67463,"Lukovská, Praha 9 - Újezd nad Lesy",10,50.0875,14.4213889,18.172930090931263
279,796607564,1675.0,1556.0,1988.0,586.0,400.0,174.0,4317.0,1365.0,354.0,0.0,0.0,29.01.2024,Cihlová,Novostavba,Klidná část obce,166.0,včetně všech poplatků RK,B,Patrový,2,1,,991.0,,Samostatný,16490000,50.01289,14.604807,Praha 10 - Benice,10,50.0875,14.4213889,15.502726564889842
281,863942220,1205.0,693.0,1529.0,96.0,875.0,526.0,1601.0,828.0,705.0,0.0,1348.0,29.01.2024,Cihlová,Novostavba,Okraj obce,354.0,,B,Patrový,3,1,,821.0,1,Samostatný,40987800,49.991692,14.421094,"Dostálova, Praha 4 - Modřany",10,50.0875,14.4213889,10.653384349094928
282,760661324,2661.0,494.0,1119.0,166.0,756.0,406.0,1522.0,486.0,151.0,3059.0,465.0,29.01.2024,Cihlová,Velmi dobrý,,360.0,,,Patrový,,,,761.0,,,25000000,50.012043,14.460161,"U pejřárny, Praha - Libuš",10,50.0875,14.4213889,8.835337744949447
283,67028300,988.0,138.0,1414.0,343.0,915.0,213.0,2541.0,475.0,110.0,1654.0,3067.0,29.01.2024,Cihlová,Novostavba,Klidná část obce,105.0,"včetně poplatků, včetně provize, včetně právního servisu",B,Patrový,2,1,,212.0,,Řadový,14900000,50.140121,14.521224,"Karla Dlouhého, Praha 9 - Letňany",10,50.0875,14.4213889,9.214846912950003
284,147006540,1733.0,237.0,225.0,143.0,332.0,419.0,3268.0,1246.0,483.0,2769.0,1578.0,29.01.2024,Cihlová,Novostavba,Okraj obce,148.0,Kompletní cena včetně právního a finančního servisu.,B,Patrový,2,1,,320.0,,Samostatný,18500000,50.067749,14.552261,"Rothmayerova, Praha 10 - Štěrboholy",10,50.0875,14.4213889,9.593697331299294
285,3595949388,431.0,455.0,1392.0,84.0,670.0,468.0,660.0,1161.0,362.0,462.0,215.0,Včera,Smíšená,Dobrý,Klidná část obce,270.0,celková kupní cena včetně provize s komplet servisem ,G,Patrový,,1,,1013.0,1,Samostatný,35699000,50.059692,14.404023,"Franty Kocourka, Praha 5 - Smíchov",10,50.0875,14.4213889,3.3312240081892592
286,1387500876,1106.0,339.0,405.0,292.0,460.0,618.0,1006.0,1058.0,295.0,933.0,1186.0,29.01.2024,Cihlová,Po rekonstrukci,Centrum obce,220.0,Cena je včetně právního servisu a všech poplatků a služeb,D,Patrový,3,,1.0,608.0,1,V bloku,18900000,50.05648,14.333315,"Živcových, Praha 5 - Stodůlky",10,50.0875,14.4213889,7.169834619592844
287,145872204,3604.0,881.0,2687.0,509.0,2183.0,362.0,4338.0,2561.0,506.0,4506.0,3812.0,Včera,Cihlová,Novostavba,Klidná část obce,161.0,,,Patrový,,,,394.0,,,16900000,50.167007,14.477402,"Vraní, Praha 8 - Březiněves",10,50.0875,14.4213889,9.700652101186844
288,2291647820,1536.0,522.0,0.0,29.0,768.0,565.0,2776.0,1193.0,360.0,0.0,4962.0,29.01.2024,Cihlová,Dobrý,,369.0,vč. provize RK,G,Patrový,2,1,,782.0,1,Samostatný,21500000,49.976376,14.347757,"Zdická, Praha 5 - Radotín",10,50.0875,14.4213889,13.429134939852563
289,3988546636,1374.0,136.0,0.0,193.0,740.0,271.0,1699.0,136.0,448.0,0.0,0.0,Včera,Smíšená,Velmi dobrý,Centrum obce,188.0,,D,Patrový,2,,,610.0,,Samostatný,15900000,50.074852,14.662773,"Tuchotická, Praha 9 - Újezd nad Lesy",10,50.0875,14.4213889,17.281029229632004
290,1730340172,2270.0,307.0,1939.0,168.0,1058.0,292.0,1521.0,279.0,755.0,2544.0,3592.0,29.01.2024,Smíšená,Velmi dobrý,Centrum obce,1000.0,,G,Patrový,2,1,1.0,1829.0,1,Samostatný,35999990,50.025196,14.562578,"Dolnokřeslická, Praha 10 - Křeslice",10,50.0875,14.4213889,12.230874041440266
291,3229255772,751.0,537.0,1556.0,76.0,360.0,440.0,1074.0,2312.0,412.0,616.0,1154.0,29.01.2024,Cihlová,Dobrý,,240.0,,,Patrový,,1,,736.0,1,,16900000,50.041935,14.472775,"Hlavní, Praha 4 - Záběhlice",10,50.0875,14.4213889,6.254886232324587
292,1248843084,1874.0,302.0,1937.0,331.0,559.0,687.0,872.0,1236.0,550.0,651.0,571.0,29.01.2024,Cihlová,Velmi dobrý,Klidná část obce,275.0,,,Patrový,5,,,258.0,,Řadový,39950000,50.104065,14.368377,"Nad Šárkou, Praha - Dejvice",10,50.0875,14.4213889,4.2062062831051605
293,4285957452,817.0,241.0,542.0,114.0,337.0,142.0,3855.0,1237.0,18.0,3201.0,4165.0,Dnes,Cihlová,Dobrý,Klidná část obce,120.0,,,Patrový,2,,,736.0,1,Samostatný,9990000,50.153309,14.528758,Praha 9 - Čakovice,10,50.0875,14.4213889,10.589888067899105
298,80057676,338.0,350.0,1425.0,80.0,785.0,501.0,759.0,1177.0,353.0,352.0,270.0,30.01.2024,Cihlová,Velmi dobrý,,223.0,,D,Patrový,,1,,603.0,,Řadový,28900000,50.059692,14.404023,"Franty Kocourka, Praha - Smíchov",10,50.0875,14.4213889,3.3312240081892592
301,2003617356,1193.0,389.0,0.0,255.0,1039.0,409.0,1458.0,333.0,440.0,0.0,0.0,30.01.2024,Cihlová,Velmi dobrý,Klidná část obce,180.0,cena vč. právních služeb a provize RK,G,Patrový,2,1,,353.0,1,Samostatný,13300000,50.076904,14.668463,"Hrádková, Praha - Újezd nad Lesy",10,50.0875,14.4213889,17.668659872273636
302,253293900,1836.0,293.0,681.0,321.0,47.0,61.0,2178.0,293.0,244.0,431.0,1684.0,29.01.2024,Cihlová,Ve výstavbě,Centrum obce,168.0,Neplatíte žádnou provizi,C,Patrový,,,,235.0,,,29000000,50.048607,14.313285,"U kašny, Praha 5 - Stodůlky",10,50.0875,14.4213889,8.84510572481484
303,2333799756,1836.0,293.0,681.0,321.0,47.0,61.0,2178.0,293.0,244.0,431.0,1684.0,29.01.2024,Cihlová,Ve výstavbě,Centrum obce,88.0,Neplatíte žádnou provizi,C,Patrový,3 včetně 3 podzemních,,,207.0,,,16900000,50.048607,14.313285,"U kašny, Praha 5 - Stodůlky",10,50.0875,14.4213889,8.84510572481484
304,2662364236,414.0,222.0,964.0,117.0,520.0,225.0,471.0,351.0,471.0,365.0,1285.0,Včera,Cihlová,Velmi dobrý,Rušná část obce,270.0,,G,Patrový,3,3,,1104.0,,Samostatný,24990000,50.109665,14.578814,"Chlumecká, Praha 9 - Kyje",10,50.0875,14.4213889,11.496125937043283
308,2956445004,1854.0,220.0,0.0,39.0,1412.0,270.0,2030.0,992.0,49.0,0.0,0.0,28.01.2024,Cihlová,Před rekonstrukcí,,135.0,,G,Patrový,2,,,532.0,22,Samostatný,11490000,50.073578,14.675112,"Novosibřinská, Praha 9 - Újezd nad Lesy",10,50.0875,14.4213889,18.17044578763288
311,3104995148,1283.0,553.0,0.0,255.0,1215.0,447.0,1518.0,475.0,447.0,0.0,0.0,28.01.2024,Cihlová,Velmi dobrý,Klidná část obce,641.0,,G,Patrový,3,6,1.0,1539.0,,Samostatný,25000000,50.076904,14.668463,"Hrádková, Praha 9 - Újezd nad Lesy",10,50.0875,14.4213889,17.668659872273636
312,2327217484,1438.0,726.0,339.0,149.0,852.0,1049.0,2226.0,1743.0,359.0,2495.0,2194.0,28.01.2024,Cihlová,Projekt,Klidná část obce,250.0,včetně všech poplatků RK,G,Patrový,2,1,,1153.0,1,Samostatný,13490000,50.148651,14.496178,"Kostelecká, Praha 9 - Čakovice",10,50.0875,14.4213889,8.64118222155577
313,3306792268,1822.0,808.0,0.0,190.0,1050.0,852.0,2882.0,1479.0,645.0,0.0,5248.0,Včera,Smíšená,Dobrý,Okraj obce,66.0,,G,Přízemní,1,,,796.0,,Samostatný,6992000,49.975494,14.343851,Praha 5 - Radotín,10,50.0875,14.4213889,13.630407619569446
315,3909150028,1732.0,887.0,4736.0,385.0,1143.0,496.0,2028.0,132.0,475.0,5303.0,0.0,Včera,Cihlová,Velmi dobrý,Klidná část obce,196.0,"včetně DPH, včetně poplatků, včetně provize, včetně právního servisu",C,Patrový,2,1,,627.0,,Samostatný,16499000,50.083073,14.639799,"Načešická, Praha 9 - Újezd nad Lesy",10,50.0875,14.4213889,15.590858326554645
318,3269826380,2076.0,653.0,2919.0,190.0,361.0,143.0,3593.0,866.0,287.0,3639.0,2996.0,27.01.2024,Cihlová,Novostavba,,146.0,,B,Patrový,2. podlaží z celkem 2,1,,359.0,,Samostatný,14470000,50.131336,14.363258,"Štěpnice, Praha 6 - Lysolaje",10,50.0875,14.4213889,6.398730443917882
319,3387282508,2221.0,172.0,2542.0,151.0,124.0,580.0,3399.0,2065.0,118.0,5603.0,3801.0,27.01.2024,Smíšená,Dobrý,,90.0,,G,Patrový,2,,,749.0,,Samostatný,11700000,50.063141,14.58862,"Štramberská, Praha 10 - Dubeč",10,50.0875,14.4213889,12.237573797943421
320,3777692748,756.0,539.0,730.0,144.0,533.0,463.0,1658.0,2033.0,108.0,642.0,1826.0,27.01.2024,Cihlová,Velmi dobrý,Klidná část obce,150.0,,G,Patrový,2 včetně 1 podzemního,,,342.0,63,Řadový,15900000,50.052864,14.36182,"V Roháčích, Praha 5 - Jinonice",10,50.0875,14.4213889,5.736524896685305
321,3649094988,184.0,109.0,4435.0,134.0,488.0,441.0,2521.0,388.0,90.0,0.0,3466.0,27.01.2024,Cihlová,Dobrý,Klidná část obce,95.0,"včetně DPH, včetně poplatků, včetně provize, včetně právního servisu",G,Patrový,2 včetně 1 podzemního,,,434.0,15,Rohový,11700000,49.984539,14.365424,"Matějovského, Praha 5 - Radotín",10,50.0875,14.4213889,12.12642880539653
323,376104012,1701.0,265.0,1905.0,353.0,351.0,242.0,715.0,324.0,264.0,441.0,199.0,27.01.2024,Cihlová,Velmi dobrý,Centrum obce,424.0,"včetně provize, včetně právního servisu, cena k jednání",C,Patrový,,,,478.0,1,Řadový,26900000,50.120754,14.457601,"Zenklova, Praha 8 - Kobylisy",10,50.0875,14.4213889,4.510303241790271
324,365139276,593.0,1384.0,1973.0,138.0,611.0,104.0,651.0,2314.0,735.0,941.0,790.0,27.01.2024,Cihlová,Velmi dobrý,,462.0,,B,Patrový,,2,,700.0,14,Rohový,44000000,50.06295,14.369975,"Lukavského, Praha 5 - Košíře",10,50.0875,14.4213889,4.573167683194774
327,795752012,1479.0,232.0,638.0,226.0,366.0,206.0,733.0,826.0,234.0,688.0,245.0,31.01.2024,Cihlová,Dobrý,Klidná část obce,90.0,celková cena vč. provize a souvisejících služeb,G,Patrový,2 včetně 1 podzemního,,,200.0,1,Řadový,14339000,50.074745,14.50363,"Brigádníků, Praha 10 - Strašnice",10,50.0875,14.4213889,6.03719564972606
328,4045907276,1468.0,232.0,740.0,255.0,238.0,164.0,1651.0,655.0,400.0,801.0,927.0,26.01.2024,Cihlová,Před rekonstrukcí,Klidná část obce,203.0,cena zahrnuje kompletní právní a hypotéční servis i provizi RK,G,Patrový,3,1,,399.0,6,Rohový,19900000,50.044685,14.433558,"Nad kolonií, Praha 4 - Podolí",10,50.0875,14.4213889,4.839396869114743
330,4155753804,816.0,351.0,1156.0,228.0,807.0,944.0,1746.0,1564.0,180.0,4119.0,3657.0,26.01.2024,Cihlová,Dobrý,Klidná část obce,178.0,"včetně provize, včetně právního servisu",G,Patrový,,2,,783.0,50,Samostatný,5500000,50.038769,14.585836,"Na vrchách, Praha 10 - Uhříněves",10,50.0875,14.4213889,12.928683303351512
331,2239550796,1903.0,496.0,814.0,205.0,354.0,323.0,1471.0,754.0,174.0,855.0,1309.0,26.01.2024,Skeletová,Velmi dobrý,,366.0,Cena zahrnuje právní servis a provizi realitní kanceláře,D,Patrový,4,3,,397.0,15,Samostatný,29999000,50.053059,14.323526,"Za Lužinami, Praha 5 - Stodůlky",10,50.0875,14.4213889,7.965516989072035
332,2958918988,1108.0,534.0,1320.0,370.0,511.0,788.0,1448.0,1470.0,389.0,630.0,308.0,26.01.2024,Cihlová,Velmi dobrý,Klidná část obce,150.0,"včetně provize, včetně právního servisu",,Patrový,2 včetně 1 podzemního,,,581.0,19,Řadový,21490000,50.067688,14.487002,"U Trati, Praha 10 - Strašnice",10,50.0875,14.4213889,5.174484006242254
333,1213191500,1800.0,269.0,2900.0,196.0,444.0,391.0,3385.0,693.0,158.0,3942.0,3036.0,26.01.2024,Cihlová,Dobrý,Klidná část obce,152.0,"včetně provize, včetně právního servisu",G,Patrový,2 včetně 1 podzemního,1,,345.0,25,V bloku,12990000,50.134048,14.369453,"Křičkova, Praha 6 - Suchdol",10,50.0875,14.4213889,6.364447278616918
335,350278988,1788.0,307.0,296.0,149.0,330.0,472.0,3276.0,1231.0,457.0,2828.0,1629.0,26.01.2024,Cihlová,Novostavba,Klidná část obce,148.0,,B,Přízemní,2,,,185.0,,Řadový,17850000,50.067959,14.553241,"Otrubova, Praha 10 - Štěrboholy",10,50.0875,14.4213889,9.65648439167728
338,609998156,3806.0,198.0,1563.0,170.0,555.0,555.0,2488.0,1610.0,108.0,2440.0,4496.0,26.01.2024,Smíšená,Velmi dobrý,,236.0,cena za nemovitost,G,Patrový,,1,,1201.0,1,Samostatný,21990000,50.013142,14.550219,"Ke mlýnu, Praha 4 - Újezd u Průhonic",10,50.0875,14.4213889,12.368311881060544
339,2376229964,3806.0,198.0,1563.0,170.0,555.0,555.0,2488.0,1610.0,108.0,2440.0,4496.0,26.01.2024,Cihlová,Velmi dobrý,Klidná část obce,236.0,,G,Patrový,2,1,1.0,1201.0,,Samostatný,21990000,50.013428,14.548607,"Ke mlýnu, Praha 4 - Újezd u Průhonic",10,50.0875,14.4213889,12.261549594925484
340,245089612,1565.0,862.0,460.0,14.0,975.0,1171.0,2251.0,1879.0,272.0,2520.0,2163.0,26.01.2024,Dřevěná,Velmi dobrý,Centrum obce,122.0,"Provizi neplatíte, cena vč. právního servisu, Právo majitele vybrat kupujícího dle vlastní úvahy.",B,Patrový,2,,,788.0,,Samostatný,13490000,50.148556,14.497478,"Kostelecká, Praha 9 - Čakovice",10,50.0875,14.4213889,8.690433746057769
341,1226884428,1799.0,621.0,0.0,422.0,873.0,98.0,2088.0,501.0,204.0,0.0,0.0,Včera,Cihlová,Velmi dobrý,Klidná část obce,110.0,+ provize RK,C,Patrový,1,,,169.0,,Řadový,10896350,50.071182,14.667602,"Lstibořská, Praha 9 - Újezd nad Lesy",10,50.0875,14.4213889,17.66239461566526
344,3348583500,846.0,477.0,1202.0,384.0,651.0,479.0,2998.0,1401.0,275.0,1686.0,464.0,25.01.2024,Cihlová,Velmi dobrý,,296.0,"včetně provize, včetně právního servisu",G,Patrový,,2,,681.0,1,Samostatný,18630000,50.077515,14.317618,"Nad višňovkou, Praha 6 - Ruzyně",10,50.0875,14.4213889,7.487040604705261
346,1486996812,524.0,344.0,2547.0,56.0,51.0,198.0,2341.0,1917.0,181.0,2573.0,3062.0,25.01.2024,Cihlová,V rekonstrukci,Klidná část obce,200.0,,G,Patrový,,,,800.0,,Samostatný,17990000,50.085636,14.575425,Praha 9 - Dolní Počernice,10,50.0875,14.4213889,10.991802900858646
347,1443380060,488.0,717.0,1911.0,278.0,412.0,436.0,3411.0,1604.0,493.0,0.0,0.0,25.01.2024,Cihlová,Ve výstavbě,Klidná část obce,108.0,neplatíte provizi realitní kanceláři,B,Patrový,,,,165.0,,Řadový,11498800,50.017265,14.629045,"Sedmikrásková, Praha 10 - Kolovraty",10,50.0875,14.4213889,16.75715125928787
348,976894812,488.0,717.0,1911.0,278.0,412.0,436.0,3411.0,1604.0,493.0,0.0,0.0,25.01.2024,Cihlová,Ve výstavbě,Klidná část obce,105.0,neplatíte provizi realitní kanceláři,B,Patrový,,,,124.0,,Řadový,10998800,50.017265,14.629045,"Sedmikrásková, Praha 10 - Kolovraty",10,50.0875,14.4213889,16.75715125928787
349,3691527004,488.0,717.0,1911.0,278.0,412.0,436.0,3411.0,1604.0,493.0,0.0,0.0,25.01.2024,Cihlová,Ve výstavbě,Klidná část obce,108.0,neplatíte provizi realitní kanceláři,B,Patrový,,,,165.0,,Řadový,11598800,50.017265,14.629045,"Sedmikrásková, Praha 10 - Kolovraty",10,50.0875,14.4213889,16.75715125928787
352,3720463692,1511.0,341.0,0.0,233.0,339.0,386.0,1873.0,868.0,285.0,0.0,0.0,25.01.2024,Cihlová,Novostavba,Klidná část obce,236.0,"vč. realitního,hypotečního a právního servisu a advokátní úschovy kupní ceny.",B,Patrový,3,,,551.0,,V bloku,19999000,50.075562,14.652419,"Dobřichovská, Praha - Újezd nad Lesy",10,50.0875,14.4213889,16.538145534336156
353,673748044,2713.0,184.0,0.0,237.0,481.0,254.0,1434.0,1337.0,1241.0,0.0,0.0,25.01.2024,Smíšená,Dobrý,Klidná část obce,235.0,,,Patrový,2,,,1765.0,,Samostatný,22450000,49.959465,14.364752,"U lip, Praha 5 - Lipence",10,50.0875,14.4213889,14.800635326484903
354,2692187468,1729.0,237.0,226.0,135.0,340.0,425.0,3260.0,1238.0,489.0,2774.0,1584.0,25.01.2024,Smíšená,Velmi dobrý,,147.0,,B,Patrový,1. podlaží,1,,184.0,,,19600000,50.058754,14.558534,Praha 10 - Dolní Měcholupy,10,50.0875,14.4213889,10.296210660454395
357,2119288140,722.0,236.0,0.0,250.0,215.0,527.0,393.0,744.0,136.0,0.0,0.0,30.01.2024,Smíšená,Po rekonstrukci,Klidná část obce,300.0,"včetně poplatků, včetně právního servisu, cena k jednání",B,Patrový,3 včetně 1 podzemního,2,,1315.0,,Samostatný,69900000,50.091633,14.665264,"Aranžérská, Praha 9 - Klánovice",10,50.0875,14.4213889,17.404470765333812
359,3812738380,742.0,205.0,360.0,337.0,186.0,366.0,920.0,729.0,823.0,3444.0,2318.0,25.01.2024,Cihlová,Před rekonstrukcí,,167.0,,D,Patrový,1 včetně 1 podzemního,,,242.0,,,18900000,50.131432,14.404876,"Eledrova, Praha 8 - Bohnice",10,50.0875,14.4213889,5.024941455858776
360,57787724,1549.0,584.0,1298.0,229.0,279.0,104.0,477.0,720.0,198.0,1987.0,2297.0,26.01.2024,Smíšená,Před rekonstrukcí,Klidná část obce,38.0,,G,Přízemní,1,,,180.0,1,Samostatný,5500000,50.036888,14.557508,Praha 10 - Petrovice,10,50.0875,14.4213889,11.22862820216631
361,1170396492,937.0,995.0,2048.0,262.0,263.0,545.0,765.0,1987.0,557.0,1311.0,541.0,24.01.2024,Smíšená,Dobrý,Centrum obce,120.0,"včetně provize RK, právního servisu a advokátní úschovy, vkladu vlastnického práva na kú",G,Patrový,3,,,778.0,,Řadový,29950000,50.066074,14.375023,"Na Šmukýřce, Praha 5 - Košíře",10,50.0875,14.4213889,4.077202607961871
362,3741906252,968.0,181.0,2858.0,86.0,316.0,152.0,3191.0,267.0,187.0,0.0,0.0,24.01.2024,Cihlová,Dobrý,Klidná část obce,190.0,,G,Přízemní,1. podlaží z celkem 1,1,,929.0,,Samostatný,13690000,50.02784,14.601115,"Čtyřkolská, Praha 10 - Uhříněves",10,50.0875,14.4213889,14.443994021882183
363,3129795916,4787.0,390.0,871.0,376.0,579.0,140.0,2162.0,382.0,395.0,4229.0,1830.0,31.01.2024,Cihlová,Dobrý,Klidná část obce,1165.0,,G,Patrový,3 včetně 1 podzemního,1,1.0,1031.0,1,Samostatný,24990000,49.994755,14.472947,"Ke kašně, Praha 4 - Písnice",10,50.0875,14.4213889,10.950343258175637
364,2381814620,1872.0,846.0,2446.0,117.0,404.0,706.0,1865.0,1695.0,352.0,1778.0,1797.0,24.01.2024,Cihlová,Dobrý,Klidná část obce,245.0,,F,Patrový,3 včetně 1 podzemního,1,1.0,468.0,63,V bloku,20400000,50.110813,14.337145,"K Šedivce, Praha 6 - Nebušice",10,50.0875,14.4213889,6.5442038946194065
365,3279025484,1614.0,811.0,730.0,104.0,1256.0,87.0,4501.0,1421.0,68.0,4209.0,4610.0,24.01.2024,Cihlová,Novostavba,Klidná část obce,186.0,Včetně provize,B,Patrový,2,1,,636.0,,Samostatný,19900000,50.161526,14.523654,"Schoellerova, Praha 9 - Třeboradice",10,50.0875,14.4213889,10.995670119452381
367,2890986828,585.0,760.0,2583.0,106.0,1103.0,624.0,3071.0,2444.0,712.0,3008.0,4430.0,24.01.2024,Cihlová,Dobrý,Klidná část obce,110.0,,G,Patrový,3 včetně 1 podzemního,,1.0,334.0,1,Řadový,12870000,50.086834,14.601717,"V pařezinách, Praha 9 - Dolní Počernice",10,50.0875,14.4213889,12.865727208033613
368,226002252,1025.0,576.0,0.0,176.0,503.0,103.0,1355.0,675.0,543.0,0.0,0.0,24.01.2024,Smíšená,Ve výstavbě,Klidná část obce,619.0,,G,Patrový,,,,2484.0,150,Samostatný,29900000,50.082451,14.65108,"Čekanovská, Praha 9 - Újezd nad Lesy",10,50.0875,14.4213889,16.397679483589883
369,2885928268,3221.0,421.0,2266.0,327.0,1645.0,470.0,3801.0,2757.0,323.0,4010.0,3288.0,30.01.2024,Cihlová,Velmi dobrý,,146.0,včetně DPH,B,Patrový,,,,263.0,,,13599000,50.162323,14.4793,"V lánech, Praha 8 - Březiněves",10,50.0875,14.4213889,9.287904511430304
370,3790820428,1949.0,1336.0,1393.0,159.0,1483.0,127.0,2879.0,1402.0,145.0,4164.0,5117.0,30.01.2024,Cihlová,Velmi dobrý,Klidná část obce,167.0,včetně províze a právních služeb.,C,Patrový,2,,,529.0,,Řadový,17990000,50.017353,14.582356,"Pýchavková, Praha 10 - Pitkovice",10,50.0875,14.4213889,13.889489158614996
371,1430737996,2414.0,388.0,1320.0,499.0,842.0,148.0,587.0,1222.0,555.0,2856.0,2371.0,24.01.2024,Cihlová,Dobrý,Klidná část obce,200.0,,E,Patrový,3 včetně 1 podzemního,,,350.0,58,Řadový,13850000,50.142616,14.424015,"Chorušická, Praha 8 - Čimice",10,50.0875,14.4213889,6.131479473606383
372,1769129292,1487.0,675.0,2336.0,385.0,465.0,381.0,724.0,1509.0,618.0,476.0,486.0,23.01.2024,Cihlová,Dobrý,Klidná část obce,450.0,,G,Patrový,3 včetně 1 podzemního,,,890.0,1,Samostatný,58000000,50.104439,14.376745,Praha 6 - Dejvice,10,50.0875,14.4213889,3.699859301862762
373,2481964364,1013.0,295.0,0.0,63.0,485.0,130.0,1358.0,420.0,292.0,0.0,0.0,23.01.2024,Cihlová,Dobrý,Centrum obce,192.0,majitel si vyhrazuje právo vybrat zájemce dle nejvýhodnější nabídky,G,Patrový,2,,,979.0,,Samostatný,13900000,50.078163,14.660872,"Hrádková, Praha 9 - Újezd nad Lesy",10,50.0875,14.4213889,17.118983723408462
374,2238137420,1444.0,129.0,1028.0,63.0,352.0,160.0,2344.0,290.0,429.0,3501.0,1621.0,Dnes,Cihlová,Před rekonstrukcí,Klidná část obce,69.0,,,Patrový,2,,,452.0,,Samostatný,12500000,50.059799,14.557883,"Kutnohorská, Praha 10 - Dolní Měcholupy",10,50.0875,14.4213889,10.21632381821807
375,237642828,1538.0,892.0,4803.0,273.0,1072.0,420.0,1804.0,176.0,595.0,0.0,0.0,23.01.2024,Cihlová,Ve výstavbě,,141.0,,B,Patrový,3,,,160.0,,Řadový,13790000,50.085014,14.644482,"Barchovická, Praha 9 - Újezd nad Lesy",10,50.0875,14.4213889,15.919284732000051
376,3216229708,3452.0,211.0,2343.0,207.0,263.0,424.0,1150.0,273.0,133.0,2682.0,1805.0,23.01.2024,Smíšená,Dobrý,Klidná část obce,198.0,"Cena včetně provize RK, právního servisu a advokátní úschovy",D,Patrový,2,1,,399.0,,Samostatný,16000000,50.147457,14.442966,"Podhořská, Praha 8 - Dolní Chabry",10,50.0875,14.4213889,6.842116520842025
377,1202869324,0.0,509.0,1627.0,454.0,1073.0,392.0,2539.0,1749.0,480.0,3904.0,4557.0,23.01.2024,Cihlová,Novostavba,Klidná část obce,313.0,,A,Patrový,2,1,,867.0,,Samostatný,38751500,49.993973,14.517056,"V úhoru, Praha 4 - Šeberov",10,50.0875,14.4213889,12.443081682917791
378,452674636,0.0,509.0,1627.0,454.0,1073.0,392.0,2539.0,1749.0,480.0,3904.0,4557.0,23.01.2024,Cihlová,Novostavba,Klidná část obce,300.0,,A,Patrový,2,1,,860.0,,Samostatný,39950000,49.993942,14.517003,"V úhoru, Praha 4 - Šeberov",10,50.0875,14.4213889,12.443886744382635
380,227411020,876.0,523.0,2490.0,66.0,605.0,550.0,4032.0,765.0,538.0,2660.0,3576.0,23.01.2024,Cihlová,Velmi dobrý,Klidná část obce,112.0,,B,Patrový,1,,,333.0,,Samostatný,14900000,50.131645,14.551607,Praha 9 - Kbely,10,50.0875,14.4213889,10.503639531797551
381,852616524,1181.0,164.0,1316.0,116.0,72.0,219.0,2138.0,0.0,166.0,3783.0,1737.0,23.01.2024,Cihlová,Velmi dobrý,Centrum obce,180.0,,G,Patrový,3,,,106.0,,V bloku,10990000,50.058002,14.560833,"Kutnohorská, Praha 10 - Dolní Měcholupy",10,50.0875,14.4213889,10.478246364257888
382,819963212,718.0,178.0,4798.0,77.0,312.0,29.0,798.0,1113.0,395.0,0.0,4231.0,Včera,Cihlová,Novostavba,Centrum obce,100.0,včetně provize a právního servisu,D,Přízemní,1,,,814.0,,Samostatný,13500000,49.965645,14.393384,"Pod chaloupkami, Praha - Zbraslav",10,50.0875,14.4213889,13.696545620142492
383,2715080012,4250.0,523.0,847.0,71.0,575.0,313.0,434.0,679.0,87.0,953.0,3895.0,23.01.2024,Cihlová,Po rekonstrukci,Okraj obce,241.0,V případě více zájemců může RK využít pro výběr kupujícího formu aukce.,D,Patrový,3,1,,247.0,,Samostatný,22900000,50.019024,14.509958,"K Hrnčířům, Praha 4 - Šeberov",10,50.0875,14.4213889,9.897555521143657
384,4273399116,1848.0,798.0,2917.0,852.0,2130.0,777.0,2477.0,853.0,1904.0,0.0,4110.0,23.01.2024,Cihlová,Velmi dobrý,Klidná část obce,162.0,,G,Patrový,2,,,543.0,,Samostatný,19990000,49.966644,14.425115,"Starý lis, Praha 4 - Točná",10,50.0875,14.4213889,13.44120976680682
385,3019285836,824.0,509.0,1237.0,354.0,668.0,479.0,3023.0,1402.0,263.0,1721.0,496.0,29.01.2024,Cihlová,Velmi dobrý,Klidná část obce,275.0,,,Přízemní,1. podlaží z celkem 3,,,676.0,,Samostatný,22990000,50.077679,14.316688,"Nad višňovkou, Praha 6 - Ruzyně",10,50.0875,14.4213889,7.549998778660019
386,4221289804,2206.0,462.0,2148.0,462.0,718.0,412.0,2286.0,878.0,440.0,2171.0,1638.0,23.01.2024,Cihlová,Velmi dobrý,Klidná část obce,329.0,cena za nemovitost včetně provize RK.,G,Patrový,3,1,,514.0,79,Samostatný,23400000,50.10759,14.32231,"K Lažance, Praha 6 - Nebušice",10,50.0875,14.4213889,7.411913787299252
387,9237836,3519.0,203.0,2038.0,252.0,705.0,110.0,1398.0,749.0,172.0,1909.0,978.0,Dnes,Cihlová,Po rekonstrukci,,192.0,"včetně DPH, včetně poplatků, včetně provize, včetně právního servisu",G,Patrový,3 včetně 1 podzemního,,,266.0,24,Řadový,16450000,50.139767,14.451536,"Ústecká, Praha 8 - Dolní Chabry",10,50.0875,14.4213889,6.19663957049527
389,1386005836,1931.0,175.0,0.0,146.0,1585.0,186.0,2074.0,1181.0,254.0,0.0,0.0,28.01.2024,Smíšená,Dobrý,Klidná část obce,138.0,Bez právního servisu,G,Patrový,3 včetně 1 podzemního,1,,668.0,,Samostatný,10999000,50.073902,14.680988,"Velimská, Praha 9 - Újezd nad Lesy",10,50.0875,14.4213889,18.58520844305578
390,2132006220,647.0,321.0,387.0,53.0,372.0,283.0,442.0,1213.0,315.0,1316.0,514.0,22.01.2024,Cihlová,Velmi dobrý,Klidná část obce,241.0,,D,Patrový,4 včetně 1 podzemního,,,152.0,58,Řadový,16999000,50.056339,14.50297,"Jabloňová, Praha 10 - Záběhlice",10,50.0875,14.4213889,6.775288719782549
391,558683468,802.0,579.0,4092.0,186.0,714.0,518.0,2974.0,1093.0,670.0,4621.0,0.0,22.01.2024,Cihlová,Novostavba,Centrum obce,163.0,Cena je včetně provize realitní kanceláře a všech právních poplatků.,B,Patrový,2,,,373.0,,Samostatný,16690000,50.081814,14.626374,"Na Vydrholci, Praha 9 - Běchovice",10,50.0875,14.4213889,14.639093064141594
392,3687114060,2373.0,450.0,1830.0,385.0,311.0,38.0,2100.0,612.0,509.0,3355.0,703.0,22.01.2024,Cihlová,Velmi dobrý,Centrum obce,156.0,Cena je včetně provize realitní kanceláře a všech právních poplatků.,D,Patrový,2,1,,818.0,10,Řadový,21000000,50.012848,14.447474,"K hájovně, Praha 4 - Libuš",10,50.0875,14.4213889,8.507300291963054
393,783074636,530.0,915.0,642.0,144.0,881.0,578.0,1249.0,1421.0,1011.0,1816.0,544.0,24.01.2024,Cihlová,Po rekonstrukci,Klidná část obce,204.0,,,Patrový,3,,,324.0,,Rohový,24900000,50.061768,14.4676,"Na křivce, Praha 10 - Vršovice",10,50.0875,14.4213889,4.366040079830654
394,2029368652,462.0,710.0,2820.0,236.0,1206.0,475.0,2716.0,2129.0,485.0,2421.0,539.0,22.01.2024,Cihlová,Dobrý,Klidná část obce,380.0,včetně právního servisu a provize RK,G,Patrový,2,1,,904.0,,Samostatný,29900000,50.036835,14.396602,"Švábova, Praha 5 - Hlubočepy",10,50.0875,14.4213889,5.905002446058281
395,494912844,6250.0,792.0,1547.0,344.0,567.0,462.0,2410.0,641.0,605.0,5241.0,2252.0,22.01.2024,Cihlová,Velmi dobrý,,180.0,Včetně provize RK,G,Patrový,,1,,203.0,,Řadový,17500000,49.987572,14.468294,"Chvalšovická, Praha 4 - Písnice",10,50.0875,14.4213889,11.605473781595348
396,2993583180,365.0,461.0,3783.0,132.0,357.0,315.0,1600.0,1675.0,206.0,0.0,3231.0,22.01.2024,Smíšená,Dobrý,Klidná část obce,124.0,,G,Patrový,1,1,,557.0,1,Samostatný,10300000,49.973927,14.39943,"Závist, Praha 5 - Zbraslav",10,50.0875,14.4213889,12.7257733744518
397,1022752076,735.0,1095.0,521.0,203.0,976.0,759.0,1276.0,1343.0,1101.0,2003.0,355.0,22.01.2024,Cihlová,Před rekonstrukcí,Klidná část obce,140.0,,G,Patrový,2,,,310.0,,Samostatný,15000000,50.059547,14.465898,"Pod Sychrovem II, Praha 10 - Michle",10,50.0875,14.4213889,4.444172584545463
398,3448866124,526.0,419.0,2271.0,56.0,148.0,148.0,1375.0,1414.0,13.0,1797.0,2092.0,22.01.2024,Cihlová,Velmi dobrý,Centrum obce,77.0,"cena včetně provize RK, právního a finančního servisu",G,Přízemní,1,,,232.0,,Řadový,8360000,50.090641,14.562948,"Pilská, Praha - Hostavice",10,50.0875,14.4213889,10.105175909846697
399,3194324556,1924.0,277.0,650.0,160.0,319.0,160.0,1332.0,944.0,68.0,691.0,1531.0,22.01.2024,Cihlová,Velmi dobrý,Klidná část obce,130.0,Cena vč. provize a právních služeb,G,Patrový,2,1,,453.0,,V bloku,14900000,50.051331,14.325095,"K Vidouli, Praha 5 - Stodůlky",10,50.0875,14.4213889,7.962918917223636
400,1142678860,1445.0,194.0,0.0,233.0,715.0,318.0,1778.0,239.0,499.0,0.0,0.0,31.01.2024,Cihlová,Velmi dobrý,Klidná část obce,109.0,"včetně DPH, včetně poplatků, včetně provize, včetně právního servisu",B,Patrový,2,,,426.0,,Samostatný,12999000,50.07423,14.661682,"Třebětínská, Praha 9 - Újezd nad Lesy",10,50.0875,14.4213889,17.209344553121966
401,533201996,1074.0,180.0,1410.0,551.0,1028.0,128.0,2176.0,1439.0,477.0,2731.0,1952.0,22.01.2024,Cihlová,Velmi dobrý,Klidná část obce,97.0,včetně všech poplatků RK,G,Patrový,2,,,191.0,1,Řadový,13800000,50.082134,14.557713,"Olšinská, Praha 9 - Hostavice",10,50.0875,14.4213889,9.744809331792279
402,1983292748,3236.0,11.0,684.0,80.0,327.0,246.0,1447.0,42.0,158.0,3292.0,571.0,22.01.2024,Cihlová,Velmi dobrý,Centrum obce,452.0,včetně všech poplatků RK,G,Patrový,3,1,,645.0,20,Řadový,25990000,50.007309,14.463475,"Libušská, Praha 4 - Libuš",10,50.0875,14.4213889,9.409605139386334
403,2470233420,2958.0,372.0,383.0,284.0,369.0,250.0,576.0,1064.0,520.0,2254.0,1389.0,29.01.2024,Cihlová,Velmi dobrý,,158.0,,G,Patrový,2 včetně 1 podzemního,1,,913.0,10,Samostatný,21500000,50.014229,14.473385,"Pražského povstání, Praha 4 - Kunratice",10,50.0875,14.4213889,8.953322271836393
406,3872056652,2429.0,267.0,1001.0,157.0,486.0,519.0,888.0,1104.0,166.0,1115.0,1544.0,22.01.2024,Cihlová,Projekt,Klidná část obce,288.0,V nabídce jsou různé velikosti pozemků.,B,Přízemní,2 včetně 1 podzemního,,,526.0,,Řadový,35400756,50.040707,14.49751,"Blažimská, Praha - Chodov",10,50.0875,14.4213889,7.522989161734012
410,3890455884,817.0,241.0,542.0,114.0,337.0,142.0,3855.0,1237.0,18.0,3201.0,4165.0,24.01.2024,Cihlová,Novostavba,Klidná část obce,164.0,,B,Patrový,2,1,,610.0,,Samostatný,18500000,50.153233,14.528682,Praha 9 - Čakovice,10,50.0875,14.4213889,10.580136449473127
411,666748236,3106.0,1851.0,1746.0,110.0,2189.0,2155.0,4180.0,2040.0,349.0,4066.0,3190.0,20.01.2024,Cihlová,Velmi dobrý,,354.0,,C,Patrový,2,1,,940.0,,Samostatný,28000000,50.118614,14.301994,"K Juliáně, Praha 6 - Přední Kopanina",10,50.0875,14.4213889,9.191400773612626
412,1523598412,335.0,308.0,792.0,263.0,178.0,601.0,2906.0,526.0,194.0,1285.0,3178.0,20.01.2024,Cihlová,Před rekonstrukcí,Klidná část obce,189.0,,G,Patrový,2 včetně 1 podzemního,2,,684.0,1,Samostatný,18000000,50.035233,14.310426,"Nad schody, Praha 5 - Řeporyje",10,50.0875,14.4213889,9.824365782878852
415,604960076,1882.0,347.0,1232.0,232.0,348.0,367.0,1171.0,1458.0,280.0,1396.0,265.0,20.01.2024,Cihlová,Velmi dobrý,Klidná část obce,312.0,,,Patrový,3 včetně 1 podzemního,1,,827.0,,V bloku,42900000,50.073284,14.384678,"Nad Výšinkou, Praha 5 - Smíchov",10,50.0875,14.4213889,3.059509740841551
416,768460108,2139.0,681.0,2734.0,97.0,387.0,201.0,3319.0,913.0,316.0,3347.0,2815.0,22.01.2024,Skeletová,Novostavba,Centrum obce,121.0,,B,Přízemní,,,,220.0,,Řadový,19000000,50.128834,14.364889,"Dolina, Praha 6 - Lysolaje",10,50.0875,14.4213889,6.1122045159398315
417,1419306316,1529.0,1510.0,3117.0,564.0,1511.0,1345.0,2384.0,1213.0,761.0,0.0,2088.0,20.01.2024,Cihlová,Po rekonstrukci,Klidná část obce,120.0,,C,Patrový,3,,,301.0,40,Samostatný,11900000,49.999443,14.375009,Praha 5 - Velká Chuchle,10,50.0875,14.4213889,10.336468848438859
418,2771395660,396.0,178.0,1731.0,140.0,176.0,216.0,2177.0,1684.0,231.0,1996.0,2661.0,26.01.2024,Smíšená,Dobrý,Klidná část obce,172.0,,G,Patrový,3 včetně 1 podzemního,1,,587.0,1,Řadový,12100000,50.127392,14.56982,"Bošínská, Praha 9 - Satalice",10,50.0875,14.4213889,11.477178987101453
419,3592615244,3408.0,96.0,2010.0,189.0,717.0,54.0,1323.0,817.0,82.0,1829.0,900.0,26.01.2024,Cihlová,Novostavba,Klidná část obce,159.0,,B,Patrový,2,1,,353.0,,Rohový,19990000,50.140598,14.450075,"Za Pískovnou, Praha 8 - Dolní Chabry",10,50.0875,14.4213889,6.248506098554212
420,603833676,826.0,205.0,1123.0,156.0,569.0,378.0,685.0,205.0,396.0,1802.0,2061.0,20.01.2024,Cihlová,Velmi dobrý,Centrum obce,290.0,,G,Patrový,2 včetně 1 podzemního,1,,597.0,1,Samostatný,24880000,50.027004,14.449068,"V Pláni, Praha 4 - Lhotka",10,50.0875,14.4213889,7.011066831573108
421,1926935884,1056.0,98.0,808.0,149.0,328.0,103.0,1383.0,1610.0,422.0,499.0,403.0,20.01.2024,Cihlová,Velmi dobrý,Centrum obce,240.0,,C,Patrový,2,,,651.0,,Řadový,20900000,50.071537,14.346176,"U hrušky, Praha 5 - Motol",10,50.0875,14.4213889,5.652832461207505
422,3294168140,1214.0,173.0,1130.0,107.0,311.0,537.0,2750.0,1413.0,215.0,1229.0,110.0,19.01.2024,Cihlová,Velmi dobrý,Klidná část obce,296.0,cena včetně právního a realitního servisu,G,Patrový,4,,,1610.0,28,Samostatný,69000000,50.07692,14.323468,"Chýňská, Praha 6 - Ruzyně",10,50.0875,14.4213889,7.085244953575938
424,686941516,518.0,130.0,636.0,23.0,146.0,751.0,2640.0,645.0,98.0,1177.0,2967.0,19.01.2024,Cihlová,Před rekonstrukcí,Centrum obce,134.0,"včetně poplatků, včetně provize, včetně právního servisu",,Patrový,2 včetně 1 podzemního,,,414.0,5,Řadový,11850000,50.035931,14.314239,"Pavlovická, Praha 5 - Řeporyje",10,50.0875,14.4213889,9.559464203313395
426,390972748,1367.0,346.0,1249.0,17.0,654.0,246.0,1699.0,1127.0,293.0,1096.0,712.0,19.01.2024,Cihlová,Ve výstavbě,Klidná část obce,174.0,,,Patrový,2,,,307.0,,Samostatný,34800000,50.086632,14.329247,"Libocká, Praha - Liboc",10,50.0875,14.4213889,6.574590330541442
427,3469173836,1620.0,279.0,2483.0,39.0,367.0,354.0,3040.0,1199.0,364.0,3383.0,719.0,29.01.2024,Cihlová,Před rekonstrukcí,Centrum obce,110.0,cena konečná,G,Patrový,2,,,443.0,,Samostatný,10300000,50.020508,14.360615,"Ke Smíchovu, Praha 5 - Slivenec",10,50.0875,14.4213889,8.620691611352262
428,3129918796,2497.0,437.0,0.0,73.0,735.0,493.0,1276.0,1258.0,1239.0,0.0,0.0,29.01.2024,Cihlová,Velmi dobrý,,225.0,,,Patrový,3 včetně 1 podzemního,,1.0,1017.0,1,,21000000,49.959003,14.366808,"U lip, Praha 5 - Lipence",10,50.0875,14.4213889,14.810716611894778
429,2425275724,383.0,79.0,3799.0,59.0,115.0,107.0,3572.0,1690.0,96.0,4288.0,0.0,30.01.2024,Cihlová,Dobrý,,230.0,,G,Patrový,,,,584.0,,Samostatný,13700000,50.080635,14.618207,"Českobrodská, Praha 9 - Běchovice",10,50.0875,14.4213889,14.063633139328935
430,4063003980,534.0,128.0,1539.0,134.0,711.0,191.0,1318.0,1392.0,610.0,0.0,544.0,Včera,Cihlová,Velmi dobrý,,185.0,,G,Patrový,3 včetně 1 podzemního,1,,1050.0,60,Samostatný,14900000,50.000721,14.39768,"Na staré, Praha 5 - Lahovice",10,50.0875,14.4213889,9.796783937278004
431,3826127948,2692.0,489.0,2448.0,213.0,861.0,740.0,2762.0,1306.0,281.0,2649.0,2099.0,19.01.2024,Cihlová,Novostavba,Klidná část obce,122.0,,B,Patrový,2,1,,382.0,,Řadový,18107936,50.111195,14.317559,"Edvardova, Praha 6 - Nebušice",10,50.0875,14.4213889,7.860586936627232
432,697009228,3663.0,926.0,2742.0,571.0,2205.0,427.0,4361.0,2495.0,561.0,4506.0,3824.0,19.01.2024,Cihlová,Ve výstavbě,Klidná část obce,146.0,,B,Přízemní,2,,,386.0,,V bloku,15163456,50.167027,14.476698,"Poštolčí, Praha",10,50.0875,14.4213889,9.68213419519042
433,1152304460,1238.0,633.0,2141.0,469.0,586.0,653.0,1021.0,705.0,794.0,2741.0,0.0,29.01.2024,Cihlová,Velmi dobrý,,201.0,33000000,B,Patrový,,2,1.0,812.0,,Řadový,33000000,50.106319,14.613541,"Jeřická, Praha 9 - Horní Počernice",10,50.0875,14.4213889,13.86512949973739
434,1861735756,0.0,344.0,1751.0,375.0,1409.0,81.0,2208.0,1673.0,307.0,3566.0,4328.0,29.01.2024,Cihlová,Velmi dobrý,Klidná část obce,417.0,,B,Patrový,3,,,815.0,,Samostatný,37500000,49.99556,14.512786,"K Safině, Praha 4 - Šeberov",10,50.0875,14.4213889,12.129135854268737
436,3964179788,944.0,145.0,158.0,139.0,343.0,220.0,755.0,579.0,632.0,3246.0,2384.0,18.01.2024,Cihlová,Velmi dobrý,Centrum obce,181.0,cena je včetně provize a veškerého právního servisu,D,Patrový,1,1,,242.0,1,Řadový,17990000,50.131336,14.407755,"Eledrova, Praha 8 - Bohnice",10,50.0875,14.4213889,4.970360829979985
437,4144756044,132.0,313.0,2345.0,237.0,521.0,468.0,1878.0,1835.0,281.0,2226.0,2599.0,24.01.2024,Smíšená,Dobrý,Centrum obce,103.0,,G,Patrový,1,,,187.0,,Samostatný,11500000,50.087353,14.568163,"Českobrodská, Praha",10,50.0875,14.4213889,10.471559785950454
438,2446312780,817.0,256.0,278.0,185.0,428.0,343.0,3862.0,1310.0,278.0,3334.0,4118.0,18.01.2024,Cihlová,Velmi dobrý,Klidná část obce,238.0,,,Patrový,4 včetně 1 podzemního,,,401.0,1,Samostatný,11500000,50.154915,14.526047,"Na bahnech, Praha 9 - Čakovice",10,50.0875,14.4213889,10.576744889497954
439,2918171980,1241.0,580.0,1388.0,65.0,99.0,123.0,976.0,1058.0,249.0,1986.0,4061.0,17.01.2024,Cihlová,Před rekonstrukcí,Centrum obce,86.0,"Včetně provize RK, právního a hypotečního servisu",G,Přízemní,2,1,,600.0,,Samostatný,11000000,50.106766,14.60492,"Spojenců, Praha 9 - Horní Počernice",10,50.0875,14.4213889,13.265433942996752
440,350139724,601.0,1257.0,3568.0,118.0,1111.0,211.0,3917.0,2904.0,355.0,3927.0,5057.0,25.01.2024,Cihlová,Novostavba,Klidná část obce,133.0,"včetně DPH, včetně provize, včetně právního servisu",B,Patrový,2,,,300.0,,Rohový,17250000,50.077286,14.601885,"Pplk. Nováčka, Praha 9 - Běchovice",10,50.0875,14.4213889,12.928764730524989
441,163611980,2669.0,1952.0,1380.0,165.0,2155.0,2149.0,4756.0,2039.0,522.0,4637.0,2942.0,17.01.2024,Cihlová,Novostavba,,163.0,Kolaudace proběhne v únoru 2024,B,Patrový,2,,,360.0,,,14490000,50.115219,14.289115,"Do roklí, Praha 6 - Přední Kopanina",10,50.0875,14.4213889,9.92501317523684
443,473785420,1010.0,169.0,1386.0,313.0,883.0,191.0,2511.0,442.0,141.0,1625.0,3041.0,17.01.2024,Cihlová,Novostavba,,143.0,,B,Patrový,2,1,,346.0,,Řadový,17950000,50.139858,14.52096,"Karla Dlouhého, Praha 9 - Letňany",10,50.0875,14.4213889,9.181756171808784
444,4168922444,1131.0,405.0,2940.0,47.0,510.0,240.0,3276.0,415.0,410.0,0.0,0.0,17.01.2024,Cihlová,Velmi dobrý,Klidná část obce,324.0,,G,Patrový,,1,,761.0,1,Samostatný,24900000,50.025814,14.600998,"Lnářská, Praha 10 - Uhříněves",10,50.0875,14.4213889,14.54171125802282
445,4239828300,2096.0,361.0,2559.0,421.0,1901.0,339.0,2189.0,430.0,1678.0,0.0,3896.0,Včera,Cihlová,Velmi dobrý,Klidná část obce,144.0,,G,Patrový,2,,,743.0,,Samostatný,13990000,49.969189,14.428904,"Hájíčkova, Praha 4 - Točná",10,50.0875,14.4213889,13.166531111178884
447,2531906892,3043.0,2136.0,4307.0,358.0,1100.0,1647.0,0.0,2735.0,490.0,0.0,0.0,17.01.2024,Dřevěná,Velmi dobrý,Klidná část obce,188.0,,G,Patrový,2 včetně 1 podzemního,1,,447.0,1,Řadový,14700000,50.046547,14.6291,"U Markéty, Praha 10 - Hájek u Uhříněvsi",10,50.0875,14.4213889,15.50898649749072
448,3116701516,1361.0,339.0,3393.0,392.0,432.0,327.0,1452.0,1009.0,395.0,3935.0,0.0,31.01.2024,Cihlová,Novostavba,Klidná část obce,184.0,"= konečná cena vč. vybavení domu, provize RK, právního a hypotečního servisu",B,Patrový,3,,,190.0,,Řadový,17490000,50.115017,14.631634,"U věže, Praha 9 - Horní Počernice",10,50.0875,14.4213889,15.304509682766815
449,961639500,2102.0,131.0,435.0,151.0,308.0,99.0,3175.0,1852.0,346.0,2394.0,1143.0,17.01.2024,Cihlová,Dobrý,Klidná část obce,150.0,,G,Patrový,2,,,643.0,,Samostatný,12500000,50.072701,14.548666,"Kazaňská, Praha 10 - Štěrboholy",10,50.0875,14.4213889,9.229807056452156
450,1292166476,499.0,480.0,1516.0,98.0,398.0,446.0,3631.0,537.0,752.0,1813.0,3478.0,17.01.2024,Cihlová,Před rekonstrukcí,,150.0,včetně provize RK,G,Patrový,,1,,576.0,,Samostatný,10900000,50.030308,14.303487,"Černovická, Praha 5 - Řeporyje",10,50.0875,14.4213889,10.549081784344212
451,2172253516,1702.0,477.0,932.0,396.0,667.0,194.0,2095.0,477.0,273.0,1908.0,395.0,23.01.2024,Cihlová,Před rekonstrukcí,,129.0,"včetně provize, včetně právního servisu",G,Patrový,,,,431.0,,Samostatný,10900000,50.062607,14.321463,"Pod viaduktem, Praha 5 - Stodůlky",10,50.0875,14.4213889,7.649386975031786
453,2901456204,536.0,228.0,206.0,240.0,439.0,139.0,296.0,1020.0,363.0,1210.0,486.0,16.01.2024,Cihlová,Velmi dobrý,Centrum obce,284.0,,E,Patrový,3,1,,530.0,27,Rohový,25850000,50.058243,14.499527,"Kalinová, Praha 10 - Záběhlice",10,50.0875,14.4213889,6.456009713596985
454,2500379980,2692.0,489.0,2448.0,213.0,861.0,740.0,2762.0,1306.0,281.0,2649.0,2099.0,16.01.2024,Cihlová,Novostavba,Klidná část obce,122.0,,B,Patrový,2,1,,228.0,,Řadový,15340976,50.110359,14.317382,"Edvardova, Praha 6 - Nebušice",10,50.0875,14.4213889,7.841921616192041
455,3643327820,2692.0,489.0,2448.0,213.0,861.0,740.0,2762.0,1306.0,281.0,2649.0,2099.0,16.01.2024,Cihlová,Novostavba,Klidná část obce,122.0,,B,Patrový,2,1,,418.0,,Řadový,19870032,50.110397,14.317615,"Edvardova, Praha 6 - Nebušice",10,50.0875,14.4213889,7.82757197171633
456,3314148684,534.0,237.0,756.0,78.0,302.0,249.0,575.0,1194.0,87.0,5757.0,67.0,16.01.2024,Smíšená,Před rekonstrukcí,Centrum obce,194.0,"cena včetně odměny makléře, advokátní úschovy a kompletního převodu na katastru nemovitostí",G,Přízemní,1,,1.0,839.0,23,Řadový,26000000,50.001598,14.4095,"Benáčanova, Praha 4 - Modřany",10,50.0875,14.4213889,9.589520401968352
457,4030485580,329.0,369.0,4268.0,249.0,458.0,192.0,1113.0,1252.0,303.0,0.0,3696.0,16.01.2024,Cihlová,Novostavba,Klidná část obce,146.0,včetně právního servisu a provize RK,A,Patrový,2,1,,422.0,,Samostatný,19990000,49.970322,14.395154,"Šůrova, Praha 5 - Zbraslav",10,50.0875,14.4213889,13.163674971567218
458,1081656652,464.0,104.0,2550.0,54.0,279.0,476.0,3115.0,293.0,145.0,2580.0,2770.0,16.01.2024,Cihlová,Po rekonstrukci,Klidná část obce,120.0,"včetně poplatků, včetně provize",G,Patrový,,1,,1073.0,,Samostatný,19990000,50.131645,14.551607,Praha 9 - Kbely,10,50.0875,14.4213889,10.503639531797551
459,3383231564,688.0,975.0,2153.0,164.0,994.0,509.0,1329.0,2176.0,112.0,715.0,708.0,16.01.2024,Cihlová,Po rekonstrukci,,440.0,,D,Patrový,3,1,,522.0,1,Rohový,26997000,50.058582,14.381926,"Na Farkáně IV, Praha 5 - Radlice",10,50.0875,14.4213889,4.274491590664673
460,162235724,1205.0,671.0,1324.0,37.0,183.0,80.0,943.0,1072.0,199.0,1918.0,4001.0,16.01.2024,Cihlová,Před rekonstrukcí,Centrum obce,180.0,"vč. advokátního servisu a úschovy, vč. provize RK",G,Patrový,3,1,,616.0,50,Rohový,9900000,50.107403,14.604082,"Božanovská, Praha 9 - Horní Počernice",10,50.0875,14.4213889,13.21803663838301
461,285684812,757.0,686.0,635.0,155.0,453.0,398.0,608.0,1677.0,342.0,563.0,431.0,15.01.2024,Cihlová,Velmi dobrý,Klidná část obce,215.0,"ÚPRAVA CENY!!!, včetně provize, včetně právního servisu",C,Patrový,4,1,,174.0,1,Řadový,19900000,50.114532,14.507561,"Pod Krocínkou, Praha 9 - Vysočany",10,50.0875,14.4213889,6.841815114968727
465,1419695436,1014.0,418.0,2502.0,330.0,408.0,469.0,3679.0,665.0,481.0,2293.0,3263.0,15.01.2024,Cihlová,Dobrý,Klidná část obce,230.0,,G,Patrový,3 včetně 1 podzemního,2,,539.0,1,Samostatný,14990000,50.13776,14.542352,"Sychrovská, Praha 9 - Kbely",10,50.0875,14.4213889,10.277784667197693
466,3551184204,1216.0,240.0,432.0,88.0,271.0,251.0,789.0,636.0,463.0,4290.0,794.0,15.01.2024,Smíšená,Dobrý,,54.0,,,Patrový,,,,478.0,,,8960000,50.012913,14.412945,"Na Cikorce, Praha 4 - Modřany",10,50.0875,14.4213889,8.315580270311246
470,2196424012,1780.0,406.0,0.0,274.0,774.0,732.0,1426.0,1613.0,358.0,0.0,0.0,25.01.2024,Cihlová,Dobrý,Klidná část obce,178.0,"včetně provize, včetně právního servisu",G,Patrový,,18,,1515.0,30,Samostatný,24990000,50.102203,14.671935,"Smidarská, Praha 9 - Klánovice",10,50.0875,14.4213889,17.94697068750126
471,2984953164,1946.0,337.0,1523.0,91.0,528.0,172.0,1449.0,360.0,202.0,2935.0,1029.0,30.01.2024,Cihlová,Velmi dobrý,,405.0,k jednání,G,Patrový,4 underground_floors_n,1,,481.0,,,28900000,50.011158,14.440418,Praha 4 - Kamýk,10,50.0875,14.4213889,8.59689077496201
472,2621097292,3849.0,286.0,2362.0,114.0,319.0,579.0,1264.0,274.0,89.0,2365.0,1445.0,17.01.2024,Smíšená,Velmi dobrý,,124.0,,G,Patrový,2,,,138.0,1,Řadový,11708000,50.145214,14.447523,"Na pěšině, Praha 8 - Dolní Chabry",10,50.0875,14.4213889,6.6825613450534185
473,1894380876,778.0,235.0,969.0,223.0,214.0,129.0,3643.0,1468.0,285.0,2813.0,4039.0,Včera,Cihlová,Velmi dobrý,Klidná část obce,164.0,Včetně provize a právního servisu,E,Přízemní,1,1,,708.0,,Samostatný,16900000,50.149189,14.5303,"Něvská, Praha 9 - Čakovice",10,50.0875,14.4213889,10.361045803708823
474,3091907916,2856.0,471.0,473.0,171.0,287.0,227.0,720.0,977.0,469.0,2330.0,1265.0,13.01.2024,Cihlová,Dobrý,,399.0,,G,Patrový,4 včetně 1 podzemního,1,,908.0,98,Samostatný,32000000,50.014339,14.471342,"Jihočeská, Praha 4 - Kunratice",10,50.0875,14.4213889,8.88262383313324
476,2536936780,1537.0,416.0,967.0,311.0,626.0,323.0,1728.0,1304.0,559.0,839.0,501.0,29.01.2024,Cihlová,Velmi dobrý,Klidná část obce,557.0,včetně provize a právního servisu,D,Patrový,4,1,1.0,1617.0,1,Samostatný,51800000,50.051796,14.4225,"Vápencová, Praha 4 - Podolí",10,50.0875,14.4213889,3.970895571493758
477,1654641996,3281.0,985.0,2533.0,70.0,2423.0,431.0,4544.0,2570.0,101.0,0.0,4112.0,27.01.2024,Cihlová,Dobrý,Klidná část obce,146.0,,G,Patrový,3 včetně 1 podzemního,1,,749.0,1,Samostatný,13982000,50.16959,14.484906,"Na Boleslavce, Praha 8 - Březiněves",10,50.0875,14.4213889,10.18923119346783
478,4078155084,934.0,490.0,459.0,242.0,206.0,203.0,203.0,491.0,323.0,345.0,573.0,12.01.2024,Cihlová,Špatný,,126.0,Cena včetně provize RK.,G,Přízemní,2 včetně 1 podzemního,,,528.0,1,Řadový,2539290,50.070534,14.503481,"Šibřinská, Praha 10 - Strašnice",10,50.0875,14.4213889,6.154147835357842
479,829027916,1795.0,281.0,269.0,192.0,278.0,416.0,3323.0,1287.0,421.0,2774.0,1571.0,23.01.2024,Smíšená,Novostavba,Klidná část obce,159.0,,B,Patrový,2,1,,371.0,,Samostatný,21199999,50.068352,14.55333,"Rathouského, Praha 10 - Štěrboholy",10,50.0875,14.4213889,9.652902073254678
481,2211763532,1357.0,265.0,475.0,170.0,475.0,457.0,1375.0,1968.0,69.0,398.0,251.0,29.01.2024,Cihlová,Dobrý,,200.0,,G,Patrový,,1,,461.0,1,Samostatný,15900000,50.107334,14.531878,"Kbelská, Praha 9 - Hloubětín",10,50.0875,14.4213889,8.183929563983643
483,3015824716,942.0,322.0,276.0,460.0,500.0,635.0,2517.0,660.0,276.0,726.0,2578.0,10.01.2024,Cihlová,Novostavba,,153.0,,C,Patrový,2,1,,266.0,,,20257392,50.040627,14.311809,"U Řepory, Praha",10,50.0875,14.4213889,9.399208672252575
484,2965427532,942.0,322.0,276.0,460.0,500.0,635.0,2517.0,660.0,276.0,726.0,2578.0,10.01.2024,Cihlová,Novostavba,,153.0,,C,Patrový,2,1,,329.0,,,19673043,50.040627,14.311809,"U Řepory, Praha",10,50.0875,14.4213889,9.399208672252575
485,3468154188,942.0,322.0,276.0,460.0,500.0,635.0,2517.0,660.0,276.0,726.0,2578.0,10.01.2024,Cihlová,Novostavba,,200.0,,C,Patrový,,,,729.0,,,32032000,50.040627,14.311809,"U Řepory, Praha",10,50.0875,14.4213889,9.399208672252575
486,1589105996,942.0,322.0,276.0,460.0,500.0,635.0,2517.0,660.0,276.0,726.0,2578.0,10.01.2024,Cihlová,Novostavba,,191.0,,C,Patrový,,,,467.0,,,27902608,50.040627,14.311809,"U Řepory, Praha",10,50.0875,14.4213889,9.399208672252575
488,2646861132,2722.0,236.0,1398.0,189.0,547.0,236.0,336.0,1400.0,370.0,2653.0,2092.0,17.01.2024,Cihlová,Dobrý,Klidná část obce,270.0,,G,Patrový,3,1,,451.0,,V bloku,14990000,50.142834,14.428725,"K větrolamu, Praha 8 - Čimice",10,50.0875,14.4213889,6.175055352625735
490,1817564492,1600.0,257.0,639.0,295.0,343.0,133.0,878.0,690.0,224.0,5034.0,369.0,09.01.2024,Smíšená,Před rekonstrukcí,,476.0,,G,Patrový,,1,,593.0,,,42000000,50.002541,14.425395,"Hubičkova, Praha 4 - Modřany",10,50.0875,14.4213889,9.451339995055948
491,3580220748,3483.0,317.0,820.0,291.0,568.0,821.0,716.0,361.0,364.0,296.0,3150.0,19.01.2024,Cihlová,Velmi dobrý,,212.0,včetně provize a právního servisu,C,Patrový,,,,490.0,,Samostatný,24000000,50.025928,14.504229,"V lomech, Praha 4 - Chodov",10,50.0875,14.4213889,9.047081463578834
492,3349599564,2853.0,2222.0,3706.0,337.0,2090.0,2122.0,0.0,2111.0,2139.0,4256.0,2994.0,18.01.2024,Cihlová,Po rekonstrukci,Klidná část obce,104.0,,,Patrový,2,,,133.0,,Samostatný,10500000,50.005955,14.316088,"Chaloupky, Praha 5 - Zadní Kopanina",10,50.0875,14.4213889,11.779362973453347
493,1318839628,2521.0,313.0,2445.0,138.0,684.0,553.0,2587.0,1235.0,128.0,2475.0,2012.0,09.01.2024,Cihlová,Před rekonstrukcí,Klidná část obce,95.0,,E,Přízemní,1,,,165.0,,,6399000,50.110859,14.320952,"Sichrovského, Praha - Nebušice",10,50.0875,14.4213889,7.620213661558046
494,1317524812,3081.0,469.0,2175.0,12.0,1881.0,190.0,4014.0,2893.0,7.0,4269.0,3567.0,31.01.2024,Cihlová,Velmi dobrý,Klidná část obce,160.0,,,Přízemní,1,1,1.0,430.0,1,Rohový,12500000,50.16473,14.483865,Praha 8 - Praha-Březiněves,10,50.0875,14.4213889,9.673797622654288
495,3730429004,1903.0,870.0,2882.0,540.0,474.0,799.0,3475.0,1246.0,165.0,0.0,3713.0,08.01.2024,Skeletová,Novostavba,Klidná část obce,246.0,,C,Patrový,3,,,410.0,,Rohový,17990000,50.143005,14.374685,"Bažantní, Praha 6 - Suchdol",10,50.0875,14.4213889,7.0129776156103825
496,4137858380,886.0,304.0,1378.0,157.0,717.0,909.0,2049.0,1541.0,210.0,4445.0,3835.0,06.01.2024,Dřevěná,Novostavba,Klidná část obce,42.0,1.200.000Kč,C,Přízemní,,,,50.0,,Samostatný,1300000,50.041603,14.588124,"Bečovská, Praha 10 - Uhříněves",10,50.0875,14.4213889,12.949422888557816
498,2881590604,1125.0,275.0,345.0,27.0,269.0,179.0,1874.0,1013.0,217.0,1906.0,100.0,05.01.2024,Cihlová,Dobrý,,336.0,,,Patrový,2,,,1606.0,,Samostatný,28000000,50.053467,14.522673,"Pražská, Praha 10 - Hostivař",10,50.0875,14.4213889,8.159291573322147
499,3502298444,1153.0,100.0,962.0,68.0,788.0,669.0,1971.0,1298.0,168.0,1538.0,1063.0,29.01.2024,Cihlová,Dobrý,Klidná část obce,52.0,"neplatíte provizi, koupě přímo od majitele",G,Patrový,,,,100.0,,,7200000,50.111759,14.37916,"Šárecká, Praha 6 - Dejvice",10,50.0875,14.4213889,4.043360849474168
500,3711276364,3952.0,154.0,1800.0,55.0,322.0,322.0,2315.0,1742.0,153.0,2252.0,4393.0,05.01.2024,Cihlová,Ve výstavbě,,104.0,"včetně DPH, včetně provize",G,Patrový,,,,620.0,,Samostatný,14950000,50.014053,14.545424,Praha 4 - Újezd u Průhonic,10,50.0875,14.4213889,12.046891787279613
501,488141900,241.0,174.0,1964.0,148.0,1440.0,437.0,1881.0,245.0,152.0,0.0,1417.0,05.01.2024,Cihlová,Velmi dobrý,,120.0,,G,Patrový,,,,282.0,22,Samostatný,15500000,49.989609,14.406975,"Na Homoli, Praha 4 - Komořany",10,50.0875,14.4213889,10.933549960832938
502,1753695308,1614.0,581.0,1013.0,16.0,262.0,429.0,2007.0,1005.0,413.0,1110.0,1128.0,05.01.2024,Cihlová,Po rekonstrukci,Centrum obce,153.0,včetně provize,,Patrový,,,,843.0,21,Rohový,26900000,50.043636,14.42884,"Jeremenkova, Praha 4 - Podolí",10,50.0875,14.4213889,4.906364471872561
503,1907680588,694.0,115.0,668.0,217.0,118.0,143.0,3609.0,890.0,115.0,1956.0,412.0,04.01.2024,Smíšená,Velmi dobrý,Klidná část obce,326.0,,G,Patrový,2,1,,494.0,,Samostatný,23000008,50.069473,14.302889,"Kolínova, Praha 6 - Řepy",10,50.0875,14.4213889,8.690253113646067
504,2259801420,1179.0,1210.0,1241.0,25.0,1423.0,734.0,2112.0,1594.0,214.0,4442.0,3106.0,04.01.2024,Cihlová,Novostavba,,147.0,,B,Patrový,,1,,220.0,4,Řadový,18590000,50.051693,14.581066,"K hádku, Praha 10 - Dubeč",10,50.0875,14.4213889,12.07184465686041
505,3437331788,2669.0,1952.0,1380.0,165.0,2155.0,2149.0,4756.0,2039.0,522.0,4637.0,2942.0,17.01.2024,Cihlová,Novostavba,,163.0,Kolaudace proběhne v únoru 2024,B,Patrový,2,,,642.0,,,15210000,50.115219,14.289115,"Do roklí, Praha 6 - Přední Kopanina",10,50.0875,14.4213889,9.92501317523684
507,2994529612,722.0,102.0,325.0,225.0,418.0,411.0,102.0,1044.0,280.0,4964.0,403.0,03.01.2024,Cihlová,Dobrý,Klidná část obce,240.0,"Včetně právního servisu, úschovy kupní ceny a provize RK",G,Patrový,2 včetně 1 podzemního,30,1.0,806.0,1,Samostatný,27990000,50.005497,14.412943,"U pily, Praha - Modřany",10,50.0875,14.4213889,9.138239745366448
508,668128588,407.0,453.0,807.0,162.0,84.0,669.0,2981.0,616.0,331.0,1205.0,3138.0,08.01.2024,Smíšená,Před rekonstrukcí,Klidná část obce,185.0,,G,Patrový,2,11,,280.0,,Řadový,3200000,50.03582,14.308539,"Ve Výrech, Praha 5 - Řeporyje",10,50.0875,14.4213889,9.895200030977596
509,3403777356,854.0,550.0,221.0,166.0,656.0,659.0,1062.0,1081.0,158.0,1027.0,1040.0,Dnes,Smíšená,Dobrý,,282.0,Cena za nemovitost,G,Patrový,,1,,588.0,10,Samostatný,19990000,50.05727,14.333375,"K Fialce, Praha 5 - Stodůlky",10,50.0875,14.4213889,7.124169293879809
510,3487749452,742.0,582.0,2864.0,176.0,995.0,816.0,2430.0,1870.0,566.0,2704.0,451.0,16.01.2024,Cihlová,Velmi dobrý,,534.0,,C,Patrový,,1,,1383.0,,,77000000,50.041695,14.395853,Praha 5 - Hlubočepy,10,50.0875,14.4213889,5.409606016748476
511,2548225356,1178.0,140.0,1293.0,156.0,100.0,246.0,2106.0,83.0,162.0,3729.0,1654.0,19.01.2024,Cihlová,Velmi dobrý,Centrum obce,153.0,"vč. kompletního právního servisu, vč. odměny RK",C,Patrový,2,,,218.0,,Řadový,21500000,50.058754,14.558534,Praha 10 - Dolní Měcholupy,10,50.0875,14.4213889,10.296210660454395
512,1962464588,551.0,625.0,2537.0,238.0,678.0,651.0,3838.0,1286.0,586.0,0.0,0.0,03.01.2024,Cihlová,Velmi dobrý,Centrum obce,543.0,cena k jednání,D,Patrový,3,1,,1038.0,,V bloku,34567890,50.01202,14.626108,Praha 10 - Kolovraty,10,50.0875,14.4213889,16.85530694850385
513,930272588,623.0,537.0,2585.0,14.0,546.0,367.0,1556.0,2199.0,1372.0,5434.0,1577.0,29.01.2024,Smíšená,Před rekonstrukcí,,150.0,,G,Patrový,,,,1039.0,,,18900000,50.008675,14.381797,Praha 5 - Velká Chuchle,10,50.0875,14.4213889,9.209562006906092
517,2736236636,3230.0,2204.0,4121.0,299.0,1303.0,1303.0,5010.0,3122.0,428.0,0.0,0.0,02.01.2024,Cihlová,Novostavba,Klidná část obce,398.0,"Při rychlém jednání, jarní sleva 2 000 000,- Kč",A,Patrový,,,,722.0,,Samostatný,28500000,50.053715,14.624384,"Do Podkovy, Praha 10 - Hájek u Uhříněvsi",10,50.0875,14.4213889,14.966836698370686
518,2270426444,1911.0,304.0,2120.0,132.0,332.0,474.0,415.0,343.0,292.0,1746.0,331.0,02.01.2024,Cihlová,Dobrý,Klidná část obce,750.0,Prodávající si vyhrazuje právo vybrat kupujícího na základě jím zvolených kritérií.,G,Patrový,3,2,,1309.0,1,Samostatný,64000000,50.081272,14.368275,"Rozýnova, Praha 6 - Břevnov",10,50.0875,14.4213889,3.8523901081898693
520,1255396684,756.0,519.0,709.0,48.0,475.0,432.0,1750.0,2100.0,171.0,658.0,1937.0,Včera,Cihlová,V rekonstrukci,,284.0,,,Patrový,,,,406.0,,,19900000,50.051975,14.362618,"Butovická, Praha 5 - Jinonice",10,50.0875,14.4213889,5.761789494939689
